data = [
    {
        "name": "Rhassil",
        "url": "https://www.google.com/maps/place/Rhassil/@-25.3924188,-49.2288047,17z/data=!4m12!1m6!3m5!1s0x94dce67468208523:0xc0f7e8ce56ca6165!2sRhassil!8m2!3d-25.3924237!4d-49.2266106!3m4!1s0x94dce67468208523:0xc0f7e8ce56ca6165!8m2!3d-25.3924237!4d-49.2266106",
        "lat": -25.392421,
        "lon": -49.226611
    },
    {
        "name": "Clube do Bicho Pet Shop",
        "url": "https://www.google.com/maps/place/Clube+do+Bicho+Pet+Shop/@-25.4573081,-49.2273401,17z/data=!3m1!4b1!4m5!3m4!1s0x94dce53f0f8c18ad:0x63e2ed2c76792db2!8m2!3d-25.457313!4d-49.225146",
        "lat": -25.457311,
        "lon": -49.225146
    },
    {
        "name": "Empório da Matilha",
        "url": "https://www.google.com/maps/place/Emp%C3%B3rio+da+Matilha/@-25.4735611,-49.2193291,17z/data=!3m1!4b1!4m5!3m4!1s0x94dcfab37504efb3:0x3b03cc7508ca98bd!8m2!3d-25.473566!4d-49.217135",
        "lat": -25.473564,
        "lon": -49.217132
    },
    {
        "name": "Pet Expert",
        "url": "https://www.google.com/maps/place/Pet+Expert/@-25.4535449,-49.3012816,17z/data=!3m1!4b1!4m5!3m4!1s0x94dce397d1505aa5:0x69ee7e9b5610f59d!8m2!3d-25.4535498!4d-49.2990875",
        "lat": -25.453548,
        "lon": -49.299091
    },
    {
        "name": "Maison Chien",
        "url": "https://www.google.com/maps/place/Maison+Chien/@-25.4234691,-49.2451071,17z/data=!3m1!4b1!4m5!3m4!1s0x94dce44a09c8d3c1:0x29e580446e398c78!8m2!3d-25.423474!4d-49.242913",
        "lat": -25.423468,
        "lon": -49.242911
    },
    {
        "name": "Agropet Colônia",
        "url": "https://www.google.com/maps/place/Agropet+Col%C3%B4nia/@-25.3983789,-49.3448722,17z/data=!3m1!4b1!4m5!3m4!1s0x94dce1b5aba8f8bd:0xcc31e5b899068386!8m2!3d-25.3983838!4d-49.3426781",
        "lat": -25.398382,
        "lon": -49.342678
    },
    {
        "name": "Outpets",
        "url": "https://www.google.com/maps/place/Outpets/@-25.4393927,-49.2367694,17z/data=!3m1!4b1!4m5!3m4!1s0x94dce507c1752621:0xe6ede08c910735f7!8m2!3d-25.4393976!4d-49.2345753",
        "lat": -25.439396,
        "lon": -49.234575
    },
    {
        "name": "Pet Show",
        "url": "https://www.google.com/maps/place/Pet+Show/@-25.4541197,-49.2908525,17z/data=!3m1!4b1!4m5!3m4!1s0x94dce381982bf743:0xa5b0197f0183fcc7!8m2!3d-25.4541246!4d-49.2886584",
        "lat": -25.454117,
        "lon": -49.288658
    },
    {
        "name": "Pet Show",
        "url": "https://www.google.com/maps/place/Pet+Show/@-25.4385518,-49.2975866,17z/data=!3m1!4b1!4m5!3m4!1s0x94dce392ae7dd979:0xd00dde1309407901!8m2!3d-25.4385567!4d-49.2953925",
        "lat": -25.438547,
        "lon": -49.295395
    },
    {
        "name": "Coçadinhas Pet Shop",
        "url": "https://www.google.com/maps/place/Co%C3%A7adinhas+Pet+Shop/@-25.4204754,-49.2409562,17z/data=!3m1!4b1!4m5!3m4!1s0x94dce5b5fb597e35:0x7b30660438237de2!8m2!3d-25.4204803!4d-49.2387621",
        "lat": -25.420477,
        "lon": -49.238761
    },
    {
        "name": "Pet Shop Rhissi & Silva Torres",
        "url": "https://www.google.com/maps/place/Pet+Shop+Rissi+%26+Silva+Torres/@-25.458367,-49.2419747,17z/data=!3m1!4b1!4m5!3m4!1s0x94dce51f43e24e81:0x238c2326f3501bca!8m2!3d-25.4583719!4d-49.2397806",
        "lat": -25.458369,
        "lon": -49.239781
    },
    {
        "name": "Mafa Pet",
        "url": "https://www.google.com/maps/place/Mafa+Pet+-+Mafagafinhos+Pet+Shop/@-25.3978181,-49.2591291,17z/data=!3m1!4b1!4m5!3m4!1s0x94dce69a42d698fd:0x74a84019df665f32!8m2!3d-25.397823!4d-49.256935",
        "lat": -25.397822,
        "lon": -49.256934
    },
    {
        "name": "Nossos Bichos",
        "url": "https://www.google.com/maps/place/Cl%C3%ADnica+Veterin%C3%A1ria+Nossos+Bichos/@-25.4683377,-49.2996679,17z/data=!3m1!4b1!4m5!3m4!1s0x94dce37181154e93:0x6a1728ea52982ffb!8m2!3d-25.4683426!4d-49.2974738",
        "lat": -25.468331,
        "lon": -49.297469
    },
    {
        "name": "Casa do Pluto",
        "url": "https://www.google.com/maps/place/Casa+do+Pluto/@-25.4298934,-49.298332,17z/data=!4m5!3m4!1s0x94dce3ef9a85cd33:0x250f5c3020a95f3f!8m2!3d-25.4298983!4d-49.2961562",
        "lat": -25.429869,
        "lon": -49.296149
    },
    {
        "name": "Aconchego dos Bichos",
        "url": "https://www.google.com/maps/place/Aconchego+dos+Bichos/@-25.3957076,-49.2733471,17z/data=!3m1!4b1!4m5!3m4!1s0x94dce6c6172680f1:0x63e67d3f6e3a421a!8m2!3d-25.3957125!4d-49.271153",
        "lat": -25.395851,
        "lon": -49.270994
    },
    {
        "name": "Pet Fantasy",
        "url": "https://www.google.com/maps/place/Pet+Fantasy/@-25.4000922,-49.2616229,17z/data=!3m1!4b1!4m5!3m4!1s0x94dce699776240eb:0x4cea2b493292f272!8m2!3d-25.4000971!4d-49.2594288",
        "lat": -25.400087,
        "lon": -49.259440
    },
    {
        "name": "Pet Samary's",
        "url": "https://www.google.com/maps/place/Pet+Samary's/@-25.4345428,-49.3047482,17z/data=!3m1!4b1!4m5!3m4!1s0x94dce3e9bab00df9:0x35c2c28ac3256de2!8m2!3d-25.4345477!4d-49.3025541",
        "lat": -25.434519,
        "lon": -49.302533
    },
    {
        "name": "Chris Cat Sitter",
        "url": "#",
        "lat": -25.383775,
        "lon": -49.294465
    },
    {
        "name": "Armazém da Ração",
        "url": "https://www.google.com/maps/place/Armaz%C3%A9m+da+Ra%C3%A7%C3%A3o/@-25.4350732,-49.2463043,17z/data=!3m1!4b1!4m5!3m4!1s0x94dce453482fe6f7:0xee9b9f23ce9bb395!8m2!3d-25.4350732!4d-49.2441102",
        "lat": -25.435054,
        "lon": -49.244110
    },
    {
        "name": "Empório dos Bichos",
        "url": "https://www.google.com/maps/place/Emp%C3%B3rio+dos+Bichos/@-25.4388568,-49.3248465,17.25z/data=!4m5!3m4!1s0x94dce22d577950f9:0x80431c2a7d37bb6d!8m2!3d-25.4388507!4d-49.3230715",
        "lat": -25.438637,
        "lon": -49.322659
    },
    {
        "name": "Mimos de Bichos",
        "url": "https://www.google.com/maps/place/Mimos+de+Bichos+Arranhadores/@-25.4879457,-49.2304591,17z/data=!3m1!4b1!4m5!3m4!1s0x94dcfbad62978fa1:0x4042004fb1d771d!8m2!3d-25.4879457!4d-49.228265",
        "lat": -25.487936,
        "lon": -49.228254
    },
    {
        "name": "Santa Pet",
        "url": "https://www.google.com/maps/place/Santa+Pet/@-25.4002531,-49.2501577,17z/data=!3m1!4b1!4m5!3m4!1s0x94dce681701e5555:0xc838c8e88f4ab4ca!8m2!3d-25.400258!4d-49.2479636",
        "lat": -25.400248,
        "lon": -49.247964
    },
    {
        "name": "Cão Social",
        "url": "https://www.google.com/maps/place/C%C3%A3o+Social+Premiatta/@-25.4138038,-49.2330428,17z/data=!3m1!4b1!4m5!3m4!1s0x94dce5c6f674f175:0x9ea776706c453287!8m2!3d-25.4138038!4d-49.2308487",
        "lat": -25.413775,
        "lon": -49.230849
    },
    {
        "name": "The Pet's Store",
        "url": "https://www.google.com/maps/place/The+Pet's+Store+-+Pet+Shop/@-25.4017713,-49.2776837,17z/data=!3m1!4b1!4m5!3m4!1s0x94dce6b03e9eaaab:0xceaa3a53e0328045!8m2!3d-25.4017713!4d-49.2754896",
        "lat": -25.401762,
        "lon": -49.275490
    },
    {
        "name": "Dog & Cia",
        "url": "https://www.google.com/maps/place/Dog+%26+Cia/@-25.3827729,-49.2958116,17z/data=!3m1!4b1!4m5!3m4!1s0x94dce128975187eb:0x4a516a1de051c0ba!8m2!3d-25.3827729!4d-49.2936175",
        "lat": -25.382773,
        "lon": -49.293612
    },
    {
        "name": "Intensiva Hospital Veterinário",
        "url": "https://www.google.com/maps/place/Intensiva+Hospital+Veterin%C3%A1rio/@-25.424794,-49.2931733,17z/data=!3m1!4b1!4m5!3m4!1s0x94dce3fbb24eb129:0x50617c4ce570002c!8m2!3d-25.424794!4d-49.2909792",
        "lat": -25.424794,
        "lon": -49.290979
    },
    {
        "name": "Namu Royal Pet Store",
        "url": "https://www.google.com/maps/place/Namu+Royal+Pet+Store/@-25.4142503,-49.2736781,17z/data=!3m1!4b1!4m5!3m4!1s0x94dce41c5802666b:0x1af5ef04f1c78855!8m2!3d-25.4142503!4d-49.271484",
        "lat": -25.414241,
        "lon": -49.271473
    },
    {
        "name": "Dog Online",
        "url": "https://www.google.com/maps/place/Dog+Line/@-25.4395436,-49.2999565,17z/data=!4m5!3m4!1s0x94dce3ea55331adf:0x9d960dc3864b0e3c!8m2!3d-25.4394324!4d-49.3000628",
        "lat": -25.439408,
        "lon": -49.300048
    },
    {
        "name": "Alecrim Pet",
        "url": "https://www.google.com/maps/place/Alecrim+Pet+Store/@-25.4416829,-49.2768532,17z/data=!3m1!4b1!4m5!3m4!1s0x94dce47ae8d59f47:0xd2c312db51415854!8m2!3d-25.4416829!4d-49.2746591",
        "lat": -25.441666,
        "lon": -49.274647
    },
    {
        "name": "Garra Hospital Veterinário",
        "url": "https://www.google.com/maps/place/Garra+Hospital+Veterin%C3%A1rio/@-25.4324526,-49.2518307,17z/data=!3m1!4b1!4m5!3m4!1s0x94dce44e10cb8293:0x177f623ce26c6964!8m2!3d-25.4324526!4d-49.2496366",
        "lat": -25.432433,
        "lon": -49.249626
    },
    {
        "name": "Nutri Pet Shop",
        "url": "https://www.google.com/maps/place/Nutri+Pet+Shop/@-25.3982973,-49.2521533,17z/data=!3m1!4b1!4m5!3m4!1s0x94dce684124263cd:0xf9a467e4de9b4840!8m2!3d-25.3982973!4d-49.2499592",
        "lat": -25.398268,
        "lon": -49.249948
    },
    {
        "name": "Boticão Pet Shop",
        "url": "https://www.google.com/maps/place/Botic%C3%A3o+Pet+Shop/@-25.3894334,-49.2448908,17z/data=!3m1!4b1!4m5!3m4!1s0x94dce6628a754a89:0x486159105e2364d4!8m2!3d-25.3894334!4d-49.2426967",
        "lat": -25.389404,
        "lon": -49.242697
    },
    {
        "name": "Sweet Lounge Pet Store",
        "url": "https://www.google.com/maps/place/sweet+lounge+pet/@-25.4222153,-49.2570552,17z/data=!3m1!4b1!4m5!3m4!1s0x94dce52ccb9cf0fb:0x3ec603283d2dc95b!8m2!3d-25.4222153!4d-49.2548611",
        "lat": -25.422206,
        "lon": -49.254861
    },
    {
        "name": "PetNinho",
        "url": "https://www.google.com/maps/place/PetNinho/@-25.4163564,-49.2970453,17z/data=!3m1!4b1!4m5!3m4!1s0x94dce159d28a6e8d:0xf337bcb1636f4310!8m2!3d-25.4163564!4d-49.2948512",
        "lat": -25.416337,
        "lon": -49.294862
    },
    {
        "name": "Rhassil",
        "url": "https://www.google.com/maps/place/Rhassil/@-25.4953086,-49.2796774,17z/data=!3m1!4b1!4m5!3m4!1s0x94dcfb53c6cd6933:0xb3c9d2c4631c15d2!8m2!3d-25.4953086!4d-49.2774833",
        "lat": -25.495357,
        "lon": -49.277505
    },
    {
        "name": "Mil Bichos Pet Shop",
        "url": "https://www.google.com/maps/place/Mil+Bichos+Pet+Shop+Curitiba/@-25.4506718,-49.2803394,17z/data=!3m1!4b1!4m5!3m4!1s0x94dce47dcf56adf5:0xc76c74aced7abf1!8m2!3d-25.4506718!4d-49.2781453",
        "lat": -25.450643,
        "lon": -49.278135
    },
    {
        "name": "Totó e Trololó",
        "url": "https://www.google.com/maps/place/Pet+Shop+E+consult%C3%B3rio+veterin%C3%A1rio+Tot%C3%B3+e+Trolol%C3%B3/@-25.427413,-49.2684621,17z/data=!3m1!4b1!4m5!3m4!1s0x94dce41518c83bc1:0xa0c01614e47e464d!8m2!3d-25.427413!4d-49.266268",
        "lat": -25.427394,
        "lon": -49.266268
    },
    {
        "name": "Aupetmia / Lord Dog Pet Shop",
        "url": "https://www.google.com/maps/place/Aupetmia+%2F+Lord+Dog+Pet+Shop/@-25.3970249,-49.2102119,17z/data=!3m1!4b1!4m5!3m4!1s0x94dce5fbd52d7955:0xda02762f2f4394b4!8m2!3d-25.3970249!4d-49.2080178",
        "lat": -25.397005,
        "lon": -49.208007
    },
    {
        "name": "Aupetmia",
        "url": "https://www.google.com/maps/place/Aupetmia/@-25.3841468,-49.2360095,17z/data=!3m1!4b1!4m5!3m4!1s0x94dce7a5d2a3d67b:0xe5642e577281c4b8!8m2!3d-25.3841468!4d-49.2338154",
        "lat": -25.384118,
        "lon": -49.233815
    },
    {
        "name": "Clínica Veterinária MacVet",
        "url": "https://www.google.com/maps/place/CLINICA+VETERIN%C3%81RIA+MACVET/@-25.4395225,-49.2189224,17z/data=!3m1!4b1!4m5!3m4!1s0x94dce571a147640b:0xf73e95e13519d878!8m2!3d-25.4395225!4d-49.2167283",
        "lat": -25.439522,
        "lon": -49.216728
    },
    {
        "name": "Honjo Agropecuária",
        "url": "https://www.google.com/maps/place/Honjo+Agropecu%C3%A1ria/@-25.407207,-49.2519031,17z/data=!3m1!4b1!4m5!3m4!1s0x94dce429690c6e67:0x73c25b2f6100e288!8m2!3d-25.407207!4d-49.249709",
        "lat": -25.407188,
        "lon": -49.249698
    },
    {
        "name": "Pet Shop Tingui",
        "url": "https://www.google.com/maps/place/Pet+Shop+Tingui/@-25.3934803,-49.294494,17z/data=!3m1!4b1!4m5!3m4!1s0x94dce130d32e2bfb:0xd0fa6fcf740b8d1b!8m2!3d-25.3934803!4d-49.2922999",
        "lat": -25.393471,
        "lon": -49.292311
    },
    {
        "name": "Universo Pet",
        "url": "https://www.google.com/maps/place/Universo+Pet/@-25.9208335,-48.5802678,17z/data=!3m1!4b1!4m5!3m4!1s0x94dbfbd5ee65fd35:0xa645c4ca78194e80!8m2!3d-25.9208383!4d-48.5780737",
        "lat": -25.894052,
        "lon": -48.565130
    },
    {
        "name": "Pet Shop Mundo Animal",
        "url": "https://www.google.com/maps/place/Avi%C3%A1rio+Pet+Shop+Guaratuba+Mundo+Animal/@-25.9001806,-48.567962,19z/data=!4m5!3m4!1s0x94dbfbe2a21818bd:0x6b8760a7b9d23e93!8m2!3d-25.9003538!4d-48.567978",
        "lat": -25.9001806,
        "lon": -48.567962
    },
    {
        "name": "Centro Veterinário Dr Puppy",
        "url": "https://www.google.com/maps/place/Cl%C3%ADnica+Veterin%C3%A1ria+Doutor+Puppy/@-25.878784,-48.575372,19z/data=!4m5!3m4!1s0x0:0xdf6eedd80b619a5e!8m2!3d-25.8787552!4d-48.574762?hl=pt-BR",
        "lat": -25.878755,
        "lon": -48.574762
    },
    {
        "name": "Aviário & Pet Shop Faro Fino",
        "url": "https://www.google.com/maps/place/Aviario+%26+Pet+Shop+Faro+Fino/@-25.8751149,-48.5785866,17z/data=!3m1!4b1!4m5!3m4!1s0x94dbf00a5f4aad07:0x5d70514b55ca9793!8m2!3d-25.8751197!4d-48.5763925",
        "lat": -25.875120,
        "lon": -48.576392
    },
    {
        "name": "Aviário & Pet Shop Faro Fino - Filial",
        "url": "https://www.google.com/maps/place/Aviario+%26+Pet+Shop+Faro+Fino+-+Filial/@-25.8823115,-48.5806846,18z/data=!3m1!4b1!4m5!3m4!1s0x94dbfb568c87ae55:0x8b5409528875df7c!8m2!3d-25.8823115!4d-48.5796491",
        "lat": -25.882287,
        "lon": -48.579647
    },
    {
        "name": "Amis Vet",
        "url": "https://www.google.com/maps/place/AMIS+VET+CLINICA+VETERINARIA/@-25.8763451,-48.5760951,17z/data=!4m12!1m6!3m5!1s0x94dbfa9e13ce97a5:0x7ba489fd59beb8d5!2sAMIS+VET+CLINICA+VETERINARIA!8m2!3d-25.8765586!4d-48.5760342!3m4!1s0x94dbfa9e13ce97a5:0x7ba489fd59beb8d5!8m2!3d-25.8765586!4d-48.5760342",
        "lat": -25.876558,
        "lon": -48.576033
    },
    {
        "name": "AgroPetMaq",
        "url": "https://www.google.com/maps/place/AgroPetMaq/@-25.8102637,-48.5407906,17z/data=!3m1!4b1!4m5!3m4!1s0x94dbee3d27638bd9:0xe4c0ac20da986d47!8m2!3d-25.8102685!4d-48.5385965",
        "lat": -25.810267,
        "lon": -48.538596
    },
    {
        "name": "Miados e Latidos Pet Shop",
        "url": "https://www.google.com/maps/place/Miados+e+Latidos+Pet+Shop/@-25.8180464,-48.5412285,17z/data=!3m1!4b1!4m5!3m4!1s0x94dbee3628a8ca95:0x3d81e6939fdec71e!8m2!3d-25.8180512!4d-48.5390344",
        "lat": -25.818048,
        "lon": -48.539033
    },
    {
        "name": "Bicho Comilão",
        "url": "https://www.google.com/maps/place/Adestra+Pet/@-25.761211,-48.509263,16.04z/data=!4m8!1m2!2m1!1spet+shop!3m4!1s0x0:0x82ea15c10001bb5d!8m2!3d-25.7615952!4d-48.5093164",
        "lat": -25.761559,
        "lon": -48.509320
    },
    {
        "name": "Agro Comercial Morretes",
        "url": "https://www.google.com/maps/place/Agro+Comercial+Morretes/@-25.4808716,-48.8326398,17z/data=!3m1!4b1!4m5!3m4!1s0x94dc87726ddcfe2b:0xd05d5ac132fe4608!8m2!3d-25.4808765!4d-48.8304457",
        "lat": -25.480876,
        "lon": -48.830446
    },
    {
        "name": "Agro Aviário Praia de Leste",
        "url": "https://www.google.com/maps/place/Aviario+Praia+De+Leste/@-25.6979904,-48.4782951,17z/data=!3m1!4b1!4m5!3m4!1s0x94dbeb59b28d1c8d:0xdc2abc15681e5ba2!8m2!3d-25.6979953!4d-48.476101",
        "lat": -25.697995,
        "lon": -48.476103
    },
    {
        "name": "BichoZen Pet Store",
        "url": "https://www.google.com/maps/place/BichoZen+Pet+Store/@-25.6841024,-48.4704455,17z/data=!3m1!4b1!4m5!3m4!1s0x94dbeb4d522d16a3:0xe3d531e0d681fc9d!8m2!3d-25.6841024!4d-48.4682568",
        "lat": -25.684085,
        "lon": -48.468260
    },
    {
        "name": "Universo Pet",
        "url": "https://www.google.com/maps/place/UniversoPet/@-25.6178258,-48.420944,17z/data=!3m1!4b1!4m5!3m4!1s0x94db9597fd8daaad:0xc801d5ea3ad04923!8m2!3d-25.6178258!4d-48.4187553",
        "lat": -25.617839,
        "lon": -48.418735
    },
    {
        "name": "Boutique dos Cachorros",
        "url": "https://www.google.com/maps/place/25%C2%B039'19.0%22S+48%C2%B027'01.3%22W/@-25.6552658,-48.4509155,19z/data=!3m1!4b1!4m9!1m2!2m1!1spet+shop!3m5!1s0x0:0x0!7e2!8m2!3d-25.6552665!4d-48.4503674",
        "lat": -25.6552658,
        "lon": -48.4509155
    },
    {
        "name": "Amigão Pet Shop",
        "url": "https://www.google.com/maps/place/Amigao+pet+shop/@-25.6737906,-48.4608079,18z/data=!4m8!1m2!2m1!1spet+shop+amig%C3%A3o!3m4!1s0x0:0x443be9f40d3520f6!8m2!3d-25.6739047!4d-48.460629",
        "lat": -25.673858,
        "lon": -48.460626
    },
    {
        "name": "Agrotop",
        "url": "https://www.google.com/maps/place/PR-412,+1446+-+Majoranine,+Pontal+do+Paran%C3%A1+-+PR,+83255-000/@-25.6856932,-48.4701803,18z/data=!3m1!4b1!4m8!1m2!2m1!1seletro!3m4!1s0x94dbeb529bed8969:0xf2b33b561c35d1ba!8m2!3d-25.6856956!4d-48.4690833",
        "lat": -25.685658,
        "lon": -48.469086
    },
    {
        "name": "Aviário Unicão",
        "url": "https://www.google.com/maps/place/Aviario+Unicao+Banho+E+Tosa+Racoes/@-25.5815171,-48.3620996,19.04z/data=!4m5!3m4!1s0x94dbbe62ffe62a0b:0xcd6715322487bbbf!8m2!3d-25.5813216!4d-48.3613632",
        "lat": -25.581851,
        "lon": -48.362509
    },
    {
        "name": "Pet-shop Nutrimax",
        "url": "https://www.google.com/maps/place/Pet-shop+Nutrimax/@-25.5221959,-48.5175754,17z/data=!3m1!4b1!4m5!3m4!1s0x94db9a5f3a9bc891:0x668c8d05f3db89a5!8m2!3d-25.5221959!4d-48.5153813",
        "lat": -25.522188,
        "lon": -48.515376
    },
    {
        "name": "Clínica Veterinária Pêlos e Patas",
        "url": "https://www.google.com/maps/place/Cl%C3%ADnica+Veterin%C3%A1ria+P%C3%AAlos+e+Patas/@-25.5184901,-48.5214811,17z/data=!3m1!4b1!4m5!3m4!1s0x94db9a579a99dbd1:0x9b9dc37a00091193!8m2!3d-25.518495!4d-48.519287",
        "lat": -25.518466,
        "lon": -48.519276
    },
    {
        "name": "MyPet",
        "url": "https://www.google.com/maps/place/MY+PET/@-25.5129988,-48.5084066,17z/data=!3m1!4b1!4m5!3m4!1s0x94db9b218c3d2d4f:0xe3fa63c75a991c68!8m2!3d-25.5129988!4d-48.5062125",
        "lat": -25.512859,
        "lon": -48.505935
    },
    {
        "name": "Aviário do Japa",
        "url": "https://www.google.com/maps/place/R.+Conselheiro+Corr%C3%AAa,+1490+-+Bockmann,+Paranagu%C3%A1+-+PR,+83206-280/@-25.5191148,-48.5224393,18z/data=!3m1!4b1!4m13!1m7!3m6!1s0x94db9ae5c93dc3ed:0xa7b55278e4a8ae8b!2sParanagu%C3%A1+-+PR!3b1!8m2!3d-25.5148758!4d-48.5226223!3m4!1s0x94db9af70b6f985b:0x67a4e8f9c602f0d7!8m2!3d-25.5191148!4d-48.5215168",
        "lat": -25.519173,
        "lon": -48.521568
    },
    {
        "name": "Aviário Cão Peão",
        "url": "https://www.google.com/maps/place/Avi%C3%A1rio+C%C3%A3o+Pe%C3%A3o/@-25.526538,-48.5239027,18.5z/data=!4m5!3m4!1s0x0:0x1f1c51527e5e63a8!8m2!3d-25.5266501!4d-48.523787",
        "lat": -25.526639,
        "lon": -48.523783
    },
    {
        "name": "Aviário Terra Fértil",
        "url": "https://www.google.com/maps/place/Terra+F%C3%A9rtil+Antonina/@-25.4349063,-48.7331882,17z/data=!3m1!4b1!4m5!3m4!1s0x94db7fd9b6393ef1:0xb9f38dc20d973ce2!8m2!3d-25.4349063!4d-48.7309995",
        "lat": -25.434877,
        "lon": -48.731005
    },
    {
        "name": "Aviário Terra Fértil Centro",
        "url": "https://www.google.com/maps/place/Avi%C3%A1rio+Terra+F%C3%A9rtil+Centro/@-25.4307814,-48.7157433,17z/data=!3m1!4b1!4m5!3m4!1s0x94db7fdbd22f353d:0x53a547a2b5a54399!8m2!3d-25.4307814!4d-48.7135492",
        "lat": -25.430762,
        "lon": -48.713560
    },
    {
        "name": "Mapet Center",
        "url": "https://www.google.com/maps/place/Mapet+Center/@-26.2771605,-48.8489121,17z/data=!3m1!4b1!4m5!3m4!1s0x94deb04490c55211:0x3a426334c0389c00!8m2!3d-26.2771605!4d-48.846718",
        "lat": -26.277151,
        "lon": -48.846707
    },
    {
        "name": "ZumPet (Agropecuária Canarinho)",
        "url": "https://www.google.com/maps/place/ZumPet+(Agropecu%C3%A1ria+Canarinho)/@-26.3404174,-48.8249617,17z/data=!3m1!4b1!4m5!3m4!1s0x94deb139da9d5247:0x2d7ae7612987db7e!8m2!3d-26.3404174!4d-48.8227676",
        "lat": -26.340398,
        "lon": -48.822778
    },
    {
        "name": "Catarinna's Agropet",
        "url": "https://www.google.com/maps/place/Pet+shop+Catarinna's+Agropet/@-26.3272989,-48.8678256,17.5z/data=!4m8!1m2!2m1!1sCATARINNAS+AGROPET+joinville!3m4!1s0x0:0x9925069bd42fe6b5!8m2!3d-26.3278644!4d-48.8650846",
        "lat": -26.327843,
        "lon": -48.865075
    },
    {
        "name": "Agromer Agropecuária",
        "url": "https://www.google.com/maps/place/R.+Laura+Auler,+Joinville+-+SC/@-26.3667421,-48.8456035,17.83z/data=!4m5!3m4!1s0x94deb72f18ca04b9:0x8093be67d5227617!8m2!3d-26.3667218!4d-48.8446649",
        "lat": -26.366726,
        "lon": -48.844661
    },
    {
        "name": "Agropecuária Fênix",
        "url": "https://www.google.com/maps/place/26%C2%B021'03.1%22S+48%C2%B047'48.5%22W/@-26.350848,-48.7990031,17z/data=!3m1!4b1!4m5!3m4!1s0x0:0x0!8m2!3d-26.350848!4d-48.796809",
        "lat": -26.350848,
        "lon": -48.796809
    },
    {
        "name": "Agronec",
        "url": "https://www.google.com/maps/place/Agronec+Agropecu%C3%A1ria/@-26.3617865,-48.8135546,17z/data=!3m1!4b1!4m5!3m4!1s0x94deb6c779731da9:0x5af304918e83a2a5!8m2!3d-26.3617865!4d-48.8113605",
        "lat": -26.361767,
        "lon": -48.811361
    },
    {
        "name": "Agropecuária Cão Fiel",
        "url": "https://www.google.com/maps/place/Agropecu%C3%A1ria+C%C3%A3o+Fiel/@-26.3210419,-48.8183995,17z/data=!3m1!4b1!4m5!3m4!1s0x94deb16db0a3bdd3:0xe546e0398f17eced!8m2!3d-26.3210467!4d-48.8162054",
        "lat": -26.321042,
        "lon": -48.816205
    },
    {
        "name": "Agropecuária JM",
        "url": "https://www.google.com/maps/place/Agropecu%C3%A1ria+JM/@-26.3285122,-48.91021,17z/data=!3m1!4b1!4m5!3m4!1s0x94debaef1b5ee3a7:0xad8331f9bd722ae8!8m2!3d-26.3285122!4d-48.9080159",
        "lat": -26.328483,
        "lon": -48.908027
    },
    {
        "name": "Agropecuária Gira Sol",
        "url": "https://www.google.com/maps/place/Agropecu%C3%A1ria+Gira+Sol/@-26.241185,-48.8029041,17z/data=!3m1!4b1!4m5!3m4!1s0x94deae75ef8328cb:0x5f1be9f74c35bce1!8m2!3d-26.241185!4d-48.80071",
        "lat": -26.241156,
        "lon": -48.800699
    },
    {
        "name": "Agropecuária Manchester",
        "url": "https://www.google.com/maps/place/Agropecu%C3%A1ria+Manchester/@-26.2977077,-48.8478759,17z/data=!3m1!4b1!4m5!3m4!1s0x94deb036603125e3:0xe04a54278d8dda8f!8m2!3d-26.2977125!4d-48.8456818",
        "lat": -26.297710,
        "lon": -48.845675
    },
    {
        "name": "Agropecuária Mascote",
        "url": "https://www.google.com/maps/place/R.+Florian%C3%B3polis,+1299+-+Guanabara,+Joinville+-+SC,+89207-000/@-26.3294741,-48.8338759,17z/data=!3m1!4b1!4m5!3m4!1s0x94deb11987906e3f:0xf824ad6bd1a900fe!8m2!3d-26.3294741!4d-48.8316818",
        "lat": -26.329464,
        "lon": -48.831682
    },
    {
        "name": "Agropecuária Pedroso",
        "url": "https://www.google.com/maps/place/R.+D%C3%ADlson+Funaro,+667+-+Ulysses+Guimar%C3%A3es,+Joinville+-+SC,+89230-648/@-26.3262833,-48.7984665,17z/data=!3m1!4b1!4m5!3m4!1s0x94deb3e16f8b5db9:0x144cc2d2358b881c!8m2!3d-26.3262833!4d-48.7962724",
        "lat": -26.326274,
        "lon": -48.796262
    },
    {
        "name": "Agropecuária Selva",
        "url": "https://www.google.com/maps/place/Av.+Paulo+Schroeder,+1995+-+Boehmerwald,+Joinville+-+SC,+89232-302/@-26.3517718,-48.833859,17z/data=!3m1!4b1!4m5!3m4!1s0x94deb12d05077109:0x2e8ed634da627583!8m2!3d-26.3517718!4d-48.8316649",
        "lat": -26.351753,
        "lon": -48.831654
    },
    {
        "name": "Agropecuária Tuiuti",
        "url": "https://www.google.com/maps/place/Agropecu%C3%A1ria+Tuiuti/@-26.24839,-48.8237524,17z/data=!3m1!4b1!4m5!3m4!1s0x94deae418611033b:0xad5e6bc8c695be42!8m2!3d-26.24839!4d-48.8215583",
        "lat": -26.248371,
        "lon": -48.821558
    },
    {
        "name": "Agropecuária Vargas",
        "url": "https://www.google.com/maps/place/R.+S%C3%A3o+Firmino,+905+-+Vila+Nova,+Joinville+-+SC,+89237-360/@-26.2920531,-48.9114781,17z/data=!3m1!4b1!4m5!3m4!1s0x94dea53ab87c4f99:0x398313b30034fe32!8m2!3d-26.2920531!4d-48.909284",
        "lat": -26.292015,
        "lon": -48.909284
    },
    {
        "name": "Agropecuária Vital Pet",
        "url": "https://www.google.com/maps/place/Agropecu%C3%A1ria+Vital+Pet/@-26.3257592,-48.7966691,17z/data=!3m1!4b1!4m5!3m4!1s0x94deb3e6acd5a6f5:0x49083974cca38e22!8m2!3d-26.3257592!4d-48.794475",
        "lat": -26.325750,
        "lon": -48.794464
    },
    {
        "name": "Agropet Rodrigues",
        "url": "https://www.google.com/maps/place/Agro+Pet+Rodrigues/@-26.2473275,-48.8128145,17z/data=!3m1!4b1!4m5!3m4!1s0x94deae6d726fa457:0x34b86c444126ca7!8m2!3d-26.2473323!4d-48.8106204",
        "lat": -26.247330,
        "lon": -48.810620
    },
    {
        "name": "Agropet XV",
        "url": "https://www.google.com/maps/place/Agropet+XV/@-26.2957241,-48.87056,17z/data=!3m1!4b1!4m5!3m4!1s0x94deb01b27c7d517:0x9a5c878d8e338ece!8m2!3d-26.2957289!4d-48.8683659",
        "lat": -26.295705,
        "lon": -48.868350
    },
    {
        "name": "Pet Shop Bichinho Sapeca",
        "url": "https://www.google.com/maps/place/R.+dos+Su%C3%AD%C3%A7os,+1998+-+Vila+Nova,+Joinville+-+SC,+89237-613/@-26.2776528,-48.911416,17z/data=!3m1!4b1!4m5!3m4!1s0x94dea510a27c7fdb:0x314fee13f560bd6f!8m2!3d-26.2776528!4d-48.9092219",
        "lat": -26.277643,
        "lon": -48.909211
    },
    {
        "name": "Bicho Rei Pet Shop",
        "url": "https://www.google.com/maps/place/Bicho+Rei+Pet+Shop/@-26.3017889,-48.8270616,17z/data=!3m1!4b1!4m5!3m4!1s0x94deb1bb5c2093f7:0xc335d3690dbe28a!8m2!3d-26.3017889!4d-48.8248675",
        "lat": -26.301779,
        "lon": -48.824857
    },
    {
        "name": "Cãotinho Pet Shop",
        "url": "https://www.google.com/maps/place/C%C3%A3otinho+Pet+Shop/@-26.2849582,-48.8735442,17z/data=!3m1!4b1!4m5!3m4!1s0x94deaffc9fcea90b:0x887d2be455a75a32!8m2!3d-26.284963!4d-48.8713501",
        "lat": -26.284949,
        "lon": -48.871350
    },
    {
        "name": "Casa do Pet Banho e Tosa",
        "url": "https://www.google.com/maps/place/Casa+do+Pet+Banho+e+Tosa/@-26.2754533,-48.8509116,17z/data=!3m1!4b1!4m5!3m4!1s0x94deafd095018241:0xcd87515459e4d90f!8m2!3d-26.2754533!4d-48.8487175",
        "lat": -26.275424,
        "lon": -48.848718
    },
    {
        "name": "Agropecuária e Pet Shop Jardim Pet",
        "url": "https://www.google.com/maps/place/Agropecu%C3%A1ria+e+Pet+Shop+Jardim+Pet/@-26.3154088,-48.845046,15.25z/data=!4m12!1m6!3m5!1s0x94deb1aa89c462db:0x56c3cbfcc45001ee!2sAgropecu%C3%A1ria+e+Pet+Shop+Jardim+Pet!8m2!3d-26.315713!4d-48.83685!3m4!1s0x0:0x56c3cbfcc45001ee!8m2!3d-26.3157092!4d-48.8368464",
        "lat": -26.315688,
        "lon": -48.836849
    },
    {
        "name": "JBA Agropet",
        "url": "https://www.google.com/maps/place/JBA+Agropet/@-26.274424,-48.8311601,17z/data=!3m1!4b1!4m5!3m4!1s0x94deae27e5992e5f:0x4cc62a1a896472d9!8m2!3d-26.274424!4d-48.828966",
        "lat": -26.274424,
        "lon": -48.828966
    },
    {
        "name": "Clínica Veterinária Peludos & Cia",
        "url": "https://www.google.com/maps/place/Cl%C3%ADnica+Veterin%C3%A1ria+Peludos+%26+Cia/@-26.3071113,-48.8307941,17z/data=!3m1!4b1!4m5!3m4!1s0x94deb1a59dc6a60f:0xb21e8a1d76f22a9c!8m2!3d-26.3071113!4d-48.8286",
        "lat": -26.307102,
        "lon": -48.828589
    },
    {
        "name": "Agropet Pet & Cia",
        "url": "https://www.google.com/maps/place/Agropet+Pet+%26+Cia/@-26.3229018,-48.8189515,17z/data=!3m1!4b1!4m5!3m4!1s0x94deb16c5dd1cd81:0x727c54d32433e3b5!8m2!3d-26.3229018!4d-48.8167574",
        "lat": -26.322899,
        "lon": -48.816764
    },
    {
        "name": "Pet Shop Neves",
        "url": "https://www.google.com/maps/place/Pet+Shop+Neves/@-26.2931322,-48.8632191,17z/data=!3m1!4b1!4m5!3m4!1s0x94deb10058f38723:0xd4965841e8b8b95f!8m2!3d-26.293137!4d-48.861025",
        "lat": -26.293132,
        "lon": -48.861025
    },
    {
        "name": "Pet Show",
        "url": "https://www.google.com/maps/place/R.+do+Campo,+70+-+Morro+do+Meio,+Joinville+-+SC,+89215-110/@-26.3364301,-48.8988144,17z/data=!3m1!4b1!4m5!3m4!1s0x94deba8a6c71807f:0x41ae0e30a1d7428d!8m2!3d-26.3364301!4d-48.8966203",
        "lat": -26.336420,
        "lon": -48.896620
    },
    {
        "name": "Ponto Pet - Pet Shop",
        "url": "https://www.google.com/maps/place/Ponto+Pet+-+Pet+Shop/@-26.305674,-48.8573386,17z/data=!3m1!4b1!4m5!3m4!1s0x94deb0413641aa2d:0x30332b09591a4382!8m2!3d-26.305674!4d-48.8551445",
        "lat": -26.305674,
        "lon": -48.855134
    },
    {
        "name": "Pró Gato Pró Cão Clínica Veterinária",
        "url": "https://www.google.com/maps/place/Pr%C3%B3+Gato+Pr%C3%B3+C%C3%A3o+Cl%C3%ADnica+Veterin%C3%A1ria/@-26.2818047,-48.846509,17z/data=!3m1!4b1!4m5!3m4!1s0x94deb1fc13f2496f:0x701b041ee9466114!8m2!3d-26.2818047!4d-48.8443149",
        "lat": -26.281785,
        "lon": -48.844304
    },
    {
        "name": "Super Pet Show",
        "url": "https://www.google.com/maps/place/Super+Pet+Show/@-26.3157411,-48.8456551,17z/data=!3m1!4b1!4m5!3m4!1s0x94deb05447763a53:0x5d2741fd4378b75c!8m2!3d-26.3157459!4d-48.843461",
        "lat": -26.315731,
        "lon": -48.843488
    },
    {
        "name": "Bicho Solto - Animal Care",
        "url": "https://www.google.com/maps/place/Bicho+Solto+-+Animal+Care/@-26.3025301,-48.8590449,17z/data=!3m1!4b1!4m5!3m4!1s0x94deb0691ad65d05:0xb692f125767b0544!8m2!3d-26.3025349!4d-48.8568508",
        "lat": -26.302532,
        "lon": -48.856853
    },
    {
        "name": "Petshop Dudy",
        "url": "https://www.google.com/maps/place/Petshop+Dudy/@-26.2657474,-48.815918,17z/data=!3m1!4b1!4m5!3m4!1s0x94deae1bfefcbfdb:0x5b409d6fd2f26e5a!8m2!3d-26.2657474!4d-48.8137239",
        "lat": -26.265738,
        "lon": -48.813713
    },
    {
        "name": "Agropecuária Catarinense",
        "url": "https://www.google.com/maps/place/Comercial+e+Agropecuaria+Catarinense/@-26.360685,-48.8291851,17z/data=!3m1!4b1!4m12!1m6!3m5!1s0x94deb6cf74e0afb5:0x616eea5406742f1c!2sComercial+e+Agropecuaria+Catarinense!8m2!3d-26.360685!4d-48.826991!3m4!1s0x94deb6cf74e0afb5:0x616eea5406742f1c!8m2!3d-26.360685!4d-48.826991",
        "lat": -26.360656,
        "lon": -48.826980
    },
    {
        "name": "Agroceza",
        "url": "https://www.google.com/maps/place/Agroceza/@-26.2069322,-48.909394,17z/data=!3m1!4b1!4m5!3m4!1s0x94dea669af28d6ab:0x1eb5fc5fce0fc46c!8m2!3d-26.2069322!4d-48.9071999",
        "lat": -26.206894,
        "lon": -48.907200
    },
    {
        "name": "Agropecuária Canários & Cia",
        "url": "https://www.google.com/maps/place/Agropecu%C3%A1ria+Can%C3%A1rios+%26+Cia/@-26.2955407,-48.9020775,17z/data=!3m1!4b1!4m5!3m4!1s0x94dea54a0923455f:0x7cc680ad9bb2081!8m2!3d-26.2955407!4d-48.8998834",
        "lat": -26.295531,
        "lon": -48.899883
    },
    {
        "name": "Dona Pet",
        "url": "https://www.google.com/maps/place/Dona+Pet/@-26.9857241,-48.6361296,17z/data=!3m1!4b1!4m5!3m4!1s0x94d8b6017d4b5999:0x2ec5dbd08f580c18!8m2!3d-26.9857289!4d-48.6339355",
        "lat": -26.985724,
        "lon": -48.633932
    },
    {
        "name": "Ponto Pet",
        "url": "https://www.google.com/maps/place/Ponto+Pet/@-26.9879977,-48.6380582,17z/data=!3m1!4b1!4m5!3m4!1s0x94d8b6012dc79f4d:0x7dd3143413b76b0c!8m2!3d-26.9880025!4d-48.6358641",
        "lat": -26.987999,
        "lon": -48.635864
    },
    {
        "name": "Dog Shop",
        "url": "https://www.google.com/maps/place/Dog+Shop/@-26.9985134,-48.645761,16.54z/data=!4m8!1m2!2m1!1sdog+shop+!3m4!1s0x94d8b5e4f213cfed:0xe66b27fe217b552c!8m2!3d-26.9978286!4d-48.6450165",
        "lat": -26.997825,
        "lon": -48.645012
    },
    {
        "name": "Fofocão Pet Shop",
        "url": "https://www.google.com/maps/place/FOFOC%C3%83O+Pet+Shop-+Banho+E+Tosa/@-26.243194,-48.6259711,17z/data=!3m1!4b1!4m5!3m4!1s0x94d94e8a1d98703d:0x71cc7bfd6ea2e91c!8m2!3d-26.2431988!4d-48.623777",
        "lat": -26.243199,
        "lon": -48.623776
    },
    {
        "name": "Agro Pet Shop Paraná",
        "url": "https://www.google.com/maps/place/Agro+Pet+Shop+Paran%C3%A1/@-26.2664613,-48.6442164,16.75z/data=!4m5!3m4!1s0x94d94e910f097d4d:0x505bca1995db6417!8m2!3d-26.2664607!4d-48.6416742",
        "lat": -26.266438,
        "lon": -48.641658
    },
    {
        "name": "Agropet Colônia",
        "url": "https://www.google.com/maps/place/Agropet+Col%C3%B4nia/@-25.0921136,-50.1582726,18.5z/data=!4m5!3m4!1s0x94e81a40b13dc705:0x1f8e23f5286ae056!8m2!3d-25.092345!4d-50.1579786",
        "lat": -25.092330,
        "lon": -50.157980
    },
]