data = [
    {
        "name": "Rhassil",
        "url": "https://www.google.com/maps/place/Rhassil/@-25.3924188,-49.2288047,17z/data=!4m12!1m6!3m5!1s0x94dce67468208523:0xc0f7e8ce56ca6165!2sRhassil!8m2!3d-25.3924237!4d-49.2266106!3m4!1s0x94dce67468208523:0xc0f7e8ce56ca6165!8m2!3d-25.3924237!4d-49.2266106",
        "lat": -25.3924188,
        "lon": -49.2288047
    },
    {
        "name": "Clube do Bicho Pet Shop",
        "url": "https://www.google.com/maps/place/Clube+do+Bicho+Pet+Shop/@-25.4573081,-49.2273401,17z/data=!3m1!4b1!4m5!3m4!1s0x94dce53f0f8c18ad:0x63e2ed2c76792db2!8m2!3d-25.457313!4d-49.225146",
        "lat": -25.4573081,
        "lon": -49.2273401
    },
    {
        "name": "Empório da Matilha",
        "url": "https://www.google.com/maps/place/Emp%C3%B3rio+da+Matilha/@-25.4735611,-49.2193291,17z/data=!3m1!4b1!4m5!3m4!1s0x94dcfab37504efb3:0x3b03cc7508ca98bd!8m2!3d-25.473566!4d-49.217135",
        "lat": -25.4735611,
        "lon": -49.2193291
    },
    {
        "name": "Pet Expert",
        "url": "https://www.google.com/maps/place/Pet+Expert/@-25.4535449,-49.3012816,17z/data=!3m1!4b1!4m5!3m4!1s0x94dce397d1505aa5:0x69ee7e9b5610f59d!8m2!3d-25.4535498!4d-49.2990875",
        "lat": -25.4535449,
        "lon": -49.3012816
    },
    {
        "name": "Maison Chien",
        "url": "https://www.google.com/maps/place/Maison+Chien/@-25.4234691,-49.2451071,17z/data=!3m1!4b1!4m5!3m4!1s0x94dce44a09c8d3c1:0x29e580446e398c78!8m2!3d-25.423474!4d-49.242913",
        "lat": -25.4234691,
        "lon": -49.2451071
    },
    {
        "name": "Agropet Colônia",
        "url": "https://www.google.com/maps/place/Agropet+Col%C3%B4nia/@-25.3983789,-49.3448722,17z/data=!3m1!4b1!4m5!3m4!1s0x94dce1b5aba8f8bd:0xcc31e5b899068386!8m2!3d-25.3983838!4d-49.3426781",
        "lat": -25.3983789,
        "lon": -49.3448722
    },
    {
        "name": "Outpets",
        "url": "https://www.google.com/maps/place/Outpets/@-25.4393927,-49.2367694,17z/data=!3m1!4b1!4m5!3m4!1s0x94dce507c1752621:0xe6ede08c910735f7!8m2!3d-25.4393976!4d-49.2345753",
        "lat": -25.4393927,
        "lon": -49.2367694
    },
    {
        "name": "Pet Show",
        "url": "https://www.google.com/maps/place/Pet+Show/@-25.4541197,-49.2908525,17z/data=!3m1!4b1!4m5!3m4!1s0x94dce381982bf743:0xa5b0197f0183fcc7!8m2!3d-25.4541246!4d-49.2886584",
        "lat": -25.4541197,
        "lon": -49.2908525
    },
    {
        "name": "Pet Show",
        "url": "https://www.google.com/maps/place/Pet+Show/@-25.4385518,-49.2975866,17z/data=!3m1!4b1!4m5!3m4!1s0x94dce392ae7dd979:0xd00dde1309407901!8m2!3d-25.4385567!4d-49.2953925",
        "lat": -25.4385518,
        "lon": -49.2975866
    },
    {
        "name": "Coçadinhas Pet Shop",
        "url": "https://www.google.com/maps/place/Co%C3%A7adinhas+Pet+Shop/@-25.4204754,-49.2409562,17z/data=!3m1!4b1!4m5!3m4!1s0x94dce5b5fb597e35:0x7b30660438237de2!8m2!3d-25.4204803!4d-49.2387621",
        "lat": -25.4204754,
        "lon": -49.2409562
    },
    {
        "name": "Pet Shop Rhissi & Silva",
        "url": "https://www.google.com/maps/place/Pet+Shop+Rissi+%26+Silva+Torres/@-25.458367,-49.2419747,17z/data=!3m1!4b1!4m5!3m4!1s0x94dce51f43e24e81:0x238c2326f3501bca!8m2!3d-25.4583719!4d-49.2397806",
        "lat": -25.458367,
        "lon": -49.2419747
    },
    {
        "name": "Mafa Pet",
        "url": "https://www.google.com/maps/place/Mafa+Pet+-+Mafagafinhos+Pet+Shop/@-25.3978181,-49.2591291,17z/data=!3m1!4b1!4m5!3m4!1s0x94dce69a42d698fd:0x74a84019df665f32!8m2!3d-25.397823!4d-49.256935",
        "lat": -25.3978181,
        "lon": -49.2591291
    },
    {
        "name": "Nossos Bichos",
        "url": "https://www.google.com/maps/place/Cl%C3%ADnica+Veterin%C3%A1ria+Nossos+Bichos/@-25.4683377,-49.2996679,17z/data=!3m1!4b1!4m5!3m4!1s0x94dce37181154e93:0x6a1728ea52982ffb!8m2!3d-25.4683426!4d-49.2974738",
        "lat": -25.4683377,
        "lon": -49.2996679
    },
    {
        "name": "Universo Pet",
        "url": "https://www.google.com/maps/place/Universo+Pet/@-25.9208335,-48.5802678,17z/data=!3m1!4b1!4m5!3m4!1s0x94dbfbd5ee65fd35:0xa645c4ca78194e80!8m2!3d-25.9208383!4d-48.5780737",
        "lat": -25.894052,
        "lon": -48.565130
    },
    {
        "name": "Pet Shop Mundo Animal",
        "url": "https://www.google.com/maps/place/Avi%C3%A1rio+Pet+Shop+Guaratuba+Mundo+Animal/@-25.9001806,-48.567962,19z/data=!4m5!3m4!1s0x94dbfbe2a21818bd:0x6b8760a7b9d23e93!8m2!3d-25.9003538!4d-48.567978",
        "lat": -25.9001806,
        "lon": -48.567962
    },
    {
        "name": "Centro Veterinário Dr Puppy",
        "url": "https://www.google.com/maps/place/Centro+Veterin%C3%A1rio+Dr+Puppy/@-25.8789354,-48.5768403,17z/data=!3m1!4b1!4m5!3m4!1s0x94dbfaa1249f1e11:0xe2db3a8028556e8f!8m2!3d-25.8789402!4d-48.5746462",
        "lat": -25.8789354,
        "lon": -48.5768403
    },
    {
        "name": "Aviário & Pet Shop Faro Fino",
        "url": "https://www.google.com/maps/place/Aviario+%26+Pet+Shop+Faro+Fino/@-25.8751149,-48.5785866,17z/data=!3m1!4b1!4m5!3m4!1s0x94dbf00a5f4aad07:0x5d70514b55ca9793!8m2!3d-25.8751197!4d-48.5763925",
        "lat": -25.8751149,
        "lon": -48.5785866
    },
    {
        "name": "AgroPetMaq",
        "url": "https://www.google.com/maps/place/AgroPetMaq/@-25.8102637,-48.5407906,17z/data=!3m1!4b1!4m5!3m4!1s0x94dbee3d27638bd9:0xe4c0ac20da986d47!8m2!3d-25.8102685!4d-48.5385965",
        "lat": -25.8102637,
        "lon": -48.5407906
    },
    {
        "name": "Miados e Latidos Pet Shop",
        "url": "https://www.google.com/maps/place/Miados+e+Latidos+Pet+Shop/@-25.8180464,-48.5412285,17z/data=!3m1!4b1!4m5!3m4!1s0x94dbee3628a8ca95:0x3d81e6939fdec71e!8m2!3d-25.8180512!4d-48.5390344",
        "lat": -25.8180464,
        "lon": -48.5412285
    },
    {
        "name": "Agro Comercial Morretes",
        "url": "https://www.google.com/maps/place/Agro+Comercial+Morretes/@-25.4808716,-48.8326398,17z/data=!3m1!4b1!4m5!3m4!1s0x94dc87726ddcfe2b:0xd05d5ac132fe4608!8m2!3d-25.4808765!4d-48.8304457",
        "lat": -25.4808716,
        "lon": -48.8326398
    },
    {
        "name": "Agro Aviário Praia de Leste",
        "url": "https://www.google.com/maps/place/Aviario+Praia+De+Leste/@-25.6979904,-48.4782951,17z/data=!3m1!4b1!4m5!3m4!1s0x94dbeb59b28d1c8d:0xdc2abc15681e5ba2!8m2!3d-25.6979953!4d-48.476101",
        "lat": -25.6979904,
        "lon": -48.4782951
    },
    {
        "name": "BichoZen Pet Store",
        "url": "https://www.google.com/maps/place/BichoZen+Pet+Store/@-25.6840975,-48.4704509,17z/data=!3m1!4b1!4m5!3m4!1s0x94dbeb4d522d16a3:0xe3d531e0d681fc9d!8m2!3d-25.6841024!4d-48.4682568",
        "lat": -25.6840975,
        "lon": -48.4704509
    },
    {
        "name": "Universo Pet",
        "url": "https://www.google.com/maps/place/UniversoPet/@-25.6178209,-48.4209494,17z/data=!3m1!4b1!4m5!3m4!1s0x94db9597fd8daaad:0xc801d5ea3ad04923!8m2!3d-25.6178258!4d-48.4187553",
        "lat": -25.6178209,
        "lon": -48.4209494
    },
    {
        "name": "Boutique dos Cachorros",
        "url": "https://www.google.com/maps/place/25%C2%B039'19.0%22S+48%C2%B027'01.3%22W/@-25.6552658,-48.4509155,19z/data=!3m1!4b1!4m9!1m2!2m1!1spet+shop!3m5!1s0x0:0x0!7e2!8m2!3d-25.6552665!4d-48.4503674",
        "lat": -25.6552658,
        "lon": -48.4509155
    },
    {
        "name": "Amigão Pet Shop",
        "url": "https://www.google.com/maps/place/Amigao+pet+shop/@-25.669301,-48.4662102,15z/data=!4m8!1m2!2m1!1spet+shop+amig%C3%A3o!3m4!1s0x0:0x443be9f40d3520f6!8m2!3d-25.6739047!4d-48.460629",
        "lat": -25.669301,
        "lon": -48.4662102
    },
    {
        "name": "Agrotop",
        "url": "https://www.google.com/maps/place/PR-412,+1446+-+Majoranine,+Pontal+do+Paran%C3%A1+-+PR,+83255-000/@-25.6856936,-48.4700058,18z/data=!3m1!4b1!4m8!1m2!2m1!1seletro!3m4!1s0x94dbeb529bed8969:0xf2b33b561c35d1ba!8m2!3d-25.6856956!4d-48.4690833",
        "lat": -25.6856936,
        "lon": -48.4700058
    },
    {
        "name": "Agropet XV",
        "url": "https://www.google.com/maps/place/Agropet+XV/@-26.2957241,-48.87056,17z/data=!3m1!4b1!4m5!3m4!1s0x94deb01b27c7d517:0x9a5c878d8e338ece!8m2!3d-26.2957289!4d-48.8683659",
        "lat": -26.2957241,
        "lon": -48.87056
    },
    {
        "name": "Agropecuária Manchester",
        "url": "https://www.google.com/maps/place/Agropecu%C3%A1ria+Manchester/@-26.2977077,-48.8478759,17z/data=!3m1!4b1!4m5!3m4!1s0x94deb036603125e3:0xe04a54278d8dda8f!8m2!3d-26.2977125!4d-48.8456818",
        "lat": -26.2977077,
        "lon": -48.8478759
    },
    {
        "name": "Super Pet Show",
        "url": "https://www.google.com/maps/place/Super+Pet+Show/@-26.3157411,-48.8456551,17z/data=!3m1!4b1!4m5!3m4!1s0x94deb05447763a53:0x5d2741fd4378b75c!8m2!3d-26.3157459!4d-48.843461",
        "lat": -26.3157411,
        "lon": -48.8456551
    },
    {
        "name": "Agropecuária e Pet Shop Jardim Pet",
        "url": "https://www.google.com/maps/place/Agropecu%C3%A1ria+e+Pet+Shop+Jardim+Pet/@-26.3154088,-48.845046,15.25z/data=!4m12!1m6!3m5!1s0x94deb1aa89c462db:0x56c3cbfcc45001ee!2sAgropecu%C3%A1ria+e+Pet+Shop+Jardim+Pet!8m2!3d-26.315713!4d-48.83685!3m4!1s0x0:0x56c3cbfcc45001ee!8m2!3d-26.3157092!4d-48.8368464",
        "lat": -26.3154088,
        "lon": -48.845046
    },
    {
        "name": "Bicho Solto - Animal Care",
        "url": "https://www.google.com/maps/place/Bicho+Solto+-+Animal+Care/@-26.3025301,-48.8590449,17z/data=!3m1!4b1!4m5!3m4!1s0x94deb0691ad65d05:0xb692f125767b0544!8m2!3d-26.3025349!4d-48.8568508",
        "lat": -26.3025301,
        "lon": -48.8590449
    },
]