data = [
    {
        "name": "Rhassil",
        "url": "https://www.google.com/maps/place/Rhassil/@-25.3924188,-49.2288047,17z/data=!4m12!1m6!3m5!1s0x94dce67468208523:0xc0f7e8ce56ca6165!2sRhassil!8m2!3d-25.3924237!4d-49.2266106!3m4!1s0x94dce67468208523:0xc0f7e8ce56ca6165!8m2!3d-25.3924237!4d-49.2266106",
        "lat": -25.392421,
        "lon": -49.226611
    },
    {
        "name": "Clube do Bicho Pet Shop",
        "url": "https://www.google.com/maps/place/Clube+do+Bicho+Pet+Shop/@-25.4573081,-49.2273401,17z/data=!3m1!4b1!4m5!3m4!1s0x94dce53f0f8c18ad:0x63e2ed2c76792db2!8m2!3d-25.457313!4d-49.225146",
        "lat": -25.457311,
        "lon": -49.225146
    },
    {
        "name": "Empório da Matilha",
        "url": "https://www.google.com/maps/place/Emp%C3%B3rio+da+Matilha/@-25.4735611,-49.2193291,17z/data=!3m1!4b1!4m5!3m4!1s0x94dcfab37504efb3:0x3b03cc7508ca98bd!8m2!3d-25.473566!4d-49.217135",
        "lat": -25.473564,
        "lon": -49.217132
    },
    {
        "name": "Pet Expert",
        "url": "https://www.google.com/maps/place/Pet+Expert/@-25.4535449,-49.3012816,17z/data=!3m1!4b1!4m5!3m4!1s0x94dce397d1505aa5:0x69ee7e9b5610f59d!8m2!3d-25.4535498!4d-49.2990875",
        "lat": -25.453548,
        "lon": -49.299091
    },
    {
        "name": "Maison Chien",
        "url": "https://www.google.com/maps/place/Maison+Chien/@-25.4234691,-49.2451071,17z/data=!3m1!4b1!4m5!3m4!1s0x94dce44a09c8d3c1:0x29e580446e398c78!8m2!3d-25.423474!4d-49.242913",
        "lat": -25.423468,
        "lon": -49.242911
    },
    {
        "name": "Agropet Colônia",
        "url": "https://www.google.com/maps/place/Agropet+Col%C3%B4nia/@-25.3983789,-49.3448722,17z/data=!3m1!4b1!4m5!3m4!1s0x94dce1b5aba8f8bd:0xcc31e5b899068386!8m2!3d-25.3983838!4d-49.3426781",
        "lat": -25.398382,
        "lon": -49.342678
    },
    {
        "name": "Outpets",
        "url": "https://www.google.com/maps/place/Outpets/@-25.4393927,-49.2367694,17z/data=!3m1!4b1!4m5!3m4!1s0x94dce507c1752621:0xe6ede08c910735f7!8m2!3d-25.4393976!4d-49.2345753",
        "lat": -25.439396,
        "lon": -49.234575
    },
    {
        "name": "Pet Show",
        "url": "https://www.google.com/maps/place/Pet+Show/@-25.4541197,-49.2908525,17z/data=!3m1!4b1!4m5!3m4!1s0x94dce381982bf743:0xa5b0197f0183fcc7!8m2!3d-25.4541246!4d-49.2886584",
        "lat": -25.454117,
        "lon": -49.288658
    },
    {
        "name": "Pet Show",
        "url": "https://www.google.com/maps/place/Pet+Show/@-25.4385518,-49.2975866,17z/data=!3m1!4b1!4m5!3m4!1s0x94dce392ae7dd979:0xd00dde1309407901!8m2!3d-25.4385567!4d-49.2953925",
        "lat": -25.438547,
        "lon": -49.295395
    },
    {
        "name": "Coçadinhas Pet Shop",
        "url": "https://www.google.com/maps/place/Co%C3%A7adinhas+Pet+Shop/@-25.4204754,-49.2409562,17z/data=!3m1!4b1!4m5!3m4!1s0x94dce5b5fb597e35:0x7b30660438237de2!8m2!3d-25.4204803!4d-49.2387621",
        "lat": -25.420477,
        "lon": -49.238761
    },
    {
        "name": "Pet Shop Rhissi & Silva Torres",
        "url": "https://www.google.com/maps/place/Pet+Shop+Rissi+%26+Silva+Torres/@-25.458367,-49.2419747,17z/data=!3m1!4b1!4m5!3m4!1s0x94dce51f43e24e81:0x238c2326f3501bca!8m2!3d-25.4583719!4d-49.2397806",
        "lat": -25.458369,
        "lon": -49.239781
    },
    {
        "name": "Mafa Pet",
        "url": "https://www.google.com/maps/place/Mafa+Pet+-+Mafagafinhos+Pet+Shop/@-25.3978181,-49.2591291,17z/data=!3m1!4b1!4m5!3m4!1s0x94dce69a42d698fd:0x74a84019df665f32!8m2!3d-25.397823!4d-49.256935",
        "lat": -25.397822,
        "lon": -49.256934
    },
    {
        "name": "Nossos Bichos",
        "url": "https://www.google.com/maps/place/Cl%C3%ADnica+Veterin%C3%A1ria+Nossos+Bichos/@-25.4683377,-49.2996679,17z/data=!3m1!4b1!4m5!3m4!1s0x94dce37181154e93:0x6a1728ea52982ffb!8m2!3d-25.4683426!4d-49.2974738",
        "lat": -25.468331,
        "lon": -49.297469
    },
    {
        "name": "Casa do Pluto",
        "url": "https://www.google.com/maps/place/Casa+do+Pluto/@-25.4298934,-49.298332,17z/data=!4m5!3m4!1s0x94dce3ef9a85cd33:0x250f5c3020a95f3f!8m2!3d-25.4298983!4d-49.2961562",
        "lat": -25.429869,
        "lon": -49.296149
    },
    {
        "name": "Aconchego dos Bichos",
        "url": "https://www.google.com/maps/place/Aconchego+dos+Bichos/@-25.3957076,-49.2733471,17z/data=!3m1!4b1!4m5!3m4!1s0x94dce6c6172680f1:0x63e67d3f6e3a421a!8m2!3d-25.3957125!4d-49.271153",
        "lat": -25.395851,
        "lon": -49.270994
    },
    {
        "name": "Pet Fantasy",
        "url": "https://www.google.com/maps/place/Pet+Fantasy/@-25.4000922,-49.2616229,17z/data=!3m1!4b1!4m5!3m4!1s0x94dce699776240eb:0x4cea2b493292f272!8m2!3d-25.4000971!4d-49.2594288",
        "lat": -25.400087,
        "lon": -49.259440
    },
    {
        "name": "Pet Samary's",
        "url": "https://www.google.com/maps/place/Pet+Samary's/@-25.4345428,-49.3047482,17z/data=!3m1!4b1!4m5!3m4!1s0x94dce3e9bab00df9:0x35c2c28ac3256de2!8m2!3d-25.4345477!4d-49.3025541",
        "lat": -25.434519,
        "lon": -49.302533
    },
    {
        "name": "Chris Cat Sitter",
        "url": "#",
        "lat": -25.383775,
        "lon": -49.294465
    },
    {
        "name": "Turma do Banho",
        "url": "https://www.google.com/maps/place/Turma+do+Banho+Cristo+Rei/@-25.4350844,-49.2462877,17z/data=!3m1!4b1!4m5!3m4!1s0x94dce4534833e121:0xfb1420526a0ba977!8m2!3d-25.4350844!4d-49.2440936",
        "lat": -25.435054,
        "lon": -49.244110
    },
    {
        "name": "Armazém da Ração",
        "url": "https://www.google.com/maps/place/Rua+Professor+Manoel+de+Abreu,+294+-+Port%C3%A3o,+Curitiba+-+PR,+81070-180/@-25.4784219,-49.3063821,17z/data=!3m1!4b1!4m5!3m4!1s0x94dce36ad5954a91:0xe7be5261f87c23ca!8m2!3d-25.4784219!4d-49.304188",
        "lat": -25.478402,
        "lon": -49.304188
    },
    {
        "name": "Empório dos Bichos",
        "url": "https://www.google.com/maps/place/Emp%C3%B3rio+dos+Bichos/@-25.4388568,-49.3248465,17.25z/data=!4m5!3m4!1s0x94dce22d577950f9:0x80431c2a7d37bb6d!8m2!3d-25.4388507!4d-49.3230715",
        "lat": -25.438637,
        "lon": -49.322659
    },
    {
        "name": "Mimos de Bichos",
        "url": "https://www.google.com/maps/place/Mimos+de+Bichos+Arranhadores/@-25.4879457,-49.2304591,17z/data=!3m1!4b1!4m5!3m4!1s0x94dcfbad62978fa1:0x4042004fb1d771d!8m2!3d-25.4879457!4d-49.228265",
        "lat": -25.487936,
        "lon": -49.228254
    },
    {
        "name": "Santa Pet",
        "url": "https://www.google.com/maps/place/Santa+Pet/@-25.4002531,-49.2501577,17z/data=!3m1!4b1!4m5!3m4!1s0x94dce681701e5555:0xc838c8e88f4ab4ca!8m2!3d-25.400258!4d-49.2479636",
        "lat": -25.400248,
        "lon": -49.247964
    },
    {
        "name": "Cão Social",
        "url": "https://www.google.com/maps/place/C%C3%A3o+Social+Premiatta/@-25.4138038,-49.2330428,17z/data=!3m1!4b1!4m5!3m4!1s0x94dce5c6f674f175:0x9ea776706c453287!8m2!3d-25.4138038!4d-49.2308487",
        "lat": -25.413775,
        "lon": -49.230849
    },
    {
        "name": "The Pet's Store",
        "url": "https://www.google.com/maps/place/The+Pet's+Store+-+Pet+Shop/@-25.4017713,-49.2776837,17z/data=!3m1!4b1!4m5!3m4!1s0x94dce6b03e9eaaab:0xceaa3a53e0328045!8m2!3d-25.4017713!4d-49.2754896",
        "lat": -25.401762,
        "lon": -49.275490
    },
    {
        "name": "Dog & Cia",
        "url": "https://www.google.com/maps/place/Dog+%26+Cia/@-25.3827729,-49.2958116,17z/data=!3m1!4b1!4m5!3m4!1s0x94dce128975187eb:0x4a516a1de051c0ba!8m2!3d-25.3827729!4d-49.2936175",
        "lat": -25.382773,
        "lon": -49.293612
    },
    {
        "name": "Intensiva Hospital Veterinário",
        "url": "https://www.google.com/maps/place/Intensiva+Hospital+Veterin%C3%A1rio/@-25.424794,-49.2931733,17z/data=!3m1!4b1!4m5!3m4!1s0x94dce3fbb24eb129:0x50617c4ce570002c!8m2!3d-25.424794!4d-49.2909792",
        "lat": -25.424794,
        "lon": -49.290979
    },
    {
        "name": "Namu Royal Pet Store",
        "url": "https://www.google.com/maps/place/Namu+Royal+Pet+Store/@-25.4142503,-49.2736781,17z/data=!3m1!4b1!4m5!3m4!1s0x94dce41c5802666b:0x1af5ef04f1c78855!8m2!3d-25.4142503!4d-49.271484",
        "lat": -25.414241,
        "lon": -49.271473
    },
    {
        "name": "Dog Online",
        "url": "https://www.google.com/maps/place/Dog+Line/@-25.4395436,-49.2999565,17z/data=!4m5!3m4!1s0x94dce3ea55331adf:0x9d960dc3864b0e3c!8m2!3d-25.4394324!4d-49.3000628",
        "lat": -25.439408,
        "lon": -49.300048
    },
    {
        "name": "Alecrim Pet",
        "url": "https://www.google.com/maps/place/Alecrim+Pet+Store/@-25.4416829,-49.2768532,17z/data=!3m1!4b1!4m5!3m4!1s0x94dce47ae8d59f47:0xd2c312db51415854!8m2!3d-25.4416829!4d-49.2746591",
        "lat": -25.441666,
        "lon": -49.274647
    },
    {
        "name": "Garra Hospital Veterinário",
        "url": "https://www.google.com/maps/place/Garra+Hospital+Veterin%C3%A1rio/@-25.4324526,-49.2518307,17z/data=!3m1!4b1!4m5!3m4!1s0x94dce44e10cb8293:0x177f623ce26c6964!8m2!3d-25.4324526!4d-49.2496366",
        "lat": -25.432433,
        "lon": -49.249626
    },
    {
        "name": "Nutri Pet Shop",
        "url": "https://www.google.com/maps/place/Nutri+Pet+Shop/@-25.3982973,-49.2521533,17z/data=!3m1!4b1!4m5!3m4!1s0x94dce684124263cd:0xf9a467e4de9b4840!8m2!3d-25.3982973!4d-49.2499592",
        "lat": -25.398268,
        "lon": -49.249948
    },
    {
        "name": "Boticão Pet Shop",
        "url": "https://www.google.com/maps/place/Botic%C3%A3o+Pet+Shop/@-25.3894334,-49.2448908,17z/data=!3m1!4b1!4m5!3m4!1s0x94dce6628a754a89:0x486159105e2364d4!8m2!3d-25.3894334!4d-49.2426967",
        "lat": -25.389404,
        "lon": -49.242697
    },
    {
        "name": "Sweet Lounge Pet Store",
        "url": "https://www.google.com/maps/place/sweet+lounge+pet/@-25.4222153,-49.2570552,17z/data=!3m1!4b1!4m5!3m4!1s0x94dce52ccb9cf0fb:0x3ec603283d2dc95b!8m2!3d-25.4222153!4d-49.2548611",
        "lat": -25.422206,
        "lon": -49.254861
    },
    {
        "name": "PetNinho",
        "url": "https://www.google.com/maps/place/PetNinho/@-25.4163564,-49.2970453,17z/data=!3m1!4b1!4m5!3m4!1s0x94dce159d28a6e8d:0xf337bcb1636f4310!8m2!3d-25.4163564!4d-49.2948512",
        "lat": -25.416337,
        "lon": -49.294862
    },
    {
        "name": "Rhassil",
        "url": "https://www.google.com/maps/place/Rhassil/@-25.4953086,-49.2796774,17z/data=!3m1!4b1!4m5!3m4!1s0x94dcfb53c6cd6933:0xb3c9d2c4631c15d2!8m2!3d-25.4953086!4d-49.2774833",
        "lat": -25.495357,
        "lon": -49.277505
    },
    {
        "name": "Mil Bichos Pet Shop",
        "url": "https://www.google.com/maps/place/Mil+Bichos+Pet+Shop+Curitiba/@-25.4506718,-49.2803394,17z/data=!3m1!4b1!4m5!3m4!1s0x94dce47dcf56adf5:0xc76c74aced7abf1!8m2!3d-25.4506718!4d-49.2781453",
        "lat": -25.450643,
        "lon": -49.278135
    },
    {
        "name": "Totó e Trololó",
        "url": "https://www.google.com/maps/place/Pet+Shop+E+consult%C3%B3rio+veterin%C3%A1rio+Tot%C3%B3+e+Trolol%C3%B3/@-25.427413,-49.2684621,17z/data=!3m1!4b1!4m5!3m4!1s0x94dce41518c83bc1:0xa0c01614e47e464d!8m2!3d-25.427413!4d-49.266268",
        "lat": -25.427394,
        "lon": -49.266268
    },
    {
        "name": "Aupetmia / Lord Dog Pet Shop",
        "url": "https://www.google.com/maps/place/Aupetmia+%2F+Lord+Dog+Pet+Shop/@-25.3970249,-49.2102119,17z/data=!3m1!4b1!4m5!3m4!1s0x94dce5fbd52d7955:0xda02762f2f4394b4!8m2!3d-25.3970249!4d-49.2080178",
        "lat": -25.397005,
        "lon": -49.208007
    },
    {
        "name": "Aupetmia",
        "url": "https://www.google.com/maps/place/Aupetmia/@-25.3841468,-49.2360095,17z/data=!3m1!4b1!4m5!3m4!1s0x94dce7a5d2a3d67b:0xe5642e577281c4b8!8m2!3d-25.3841468!4d-49.2338154",
        "lat": -25.384118,
        "lon": -49.233815
    },
    {
        "name": "Clínica Veterinária MacVet",
        "url": "https://www.google.com/maps/place/CLINICA+VETERIN%C3%81RIA+MACVET/@-25.4395225,-49.2189224,17z/data=!3m1!4b1!4m5!3m4!1s0x94dce571a147640b:0xf73e95e13519d878!8m2!3d-25.4395225!4d-49.2167283",
        "lat": -25.439522,
        "lon": -49.216728
    },
    {
        "name": "Honjo Agropecuária",
        "url": "https://www.google.com/maps/place/Honjo+Agropecu%C3%A1ria/@-25.407207,-49.2519031,17z/data=!3m1!4b1!4m5!3m4!1s0x94dce429690c6e67:0x73c25b2f6100e288!8m2!3d-25.407207!4d-49.249709",
        "lat": -25.407188,
        "lon": -49.249698
    },
    {
        "name": "Pet Shop Tingui",
        "url": "https://www.google.com/maps/place/Pet+Shop+Tingui/@-25.3934803,-49.294494,17z/data=!3m1!4b1!4m5!3m4!1s0x94dce130d32e2bfb:0xd0fa6fcf740b8d1b!8m2!3d-25.3934803!4d-49.2922999",
        "lat": -25.393471,
        "lon": -49.292311
    },
    {
        "name": "Avlis Pet Shop & Veterinária",
        "url": "https://www.google.com/maps/place/Avlis+Pet+Shop+%26+Veterinaria/@-25.3724168,-49.2645541,17z/data=!3m1!4b1!4m5!3m4!1s0x94dce6e0eb8213e3:0xef45a7195f28021f!8m2!3d-25.3724168!4d-49.26236",
        "lat": -25.372407,
        "lon": -49.262349
    },
    {
        "name": "Pet da Lici",
        "url": "https://www.google.com/maps/place/Pet+da+Lici/@-25.4005938,-49.3493454,17z/data=!3m1!4b1!4m5!3m4!1s0x94dce1a95976f1df:0x67cb60b0391a9d06!8m2!3d-25.4005938!4d-49.3471513",
        "lat": -25.400584,
        "lon": -49.347162
    },
    {
        "name": "Pet Shop Delta",
        "url": "https://www.google.com/maps/place/Pet+Shop+Delta/@-25.4346805,-49.3574999,17z/data=!3m1!4b1!4m5!3m4!1s0x94dce1f9fd00701d:0x411385179728baa4!8m2!3d-25.4346805!4d-49.3553058",
        "lat": -25.434651,
        "lon": -49.355306
    },
    {
        "name": "Pet Shop Rei dos Animais - Alto da XV",
        "url": "https://www.google.com/maps/place/Pet+Shop+Rei+dos+Animais+-+Alto+da+XV/@-25.427716,-49.2453941,17z/data=!3m1!4b1!4m5!3m4!1s0x94dce5b3398b88a3:0xa104ad8015c1772a!8m2!3d-25.427716!4d-49.2432",
        "lat": -25.427706,
        "lon": -49.243200
    },
    {
        "name": "Pet Mania",
        "url": "https://www.google.com/maps/place/Pet+Mania/@-25.4591514,-49.2813329,17z/data=!3m1!4b1!4m5!3m4!1s0x94dce4847587bb3f:0xc80b98f80f23b713!8m2!3d-25.4591514!4d-49.2791388",
        "lat": -25.459151,
        "lon": -49.279139
    },
    {
        "name": "Chewbacca Pet Shop",
        "url": "https://www.google.com/maps/place/Chewbacca+Pet+Shop/@-25.4564819,-49.2786869,17z/data=!3m1!4b1!4m5!3m4!1s0x94dce5882baa9ef9:0xae5857e335037262!8m2!3d-25.4564819!4d-49.2764982?hl=pt-BR",
        "lat": -25.456479,
        "lon": -49.276500
    },
    {
        "name": "Centro Agroanimal - Agropecuária e Veterinária",
        "url": "https://www.google.com/maps/place/Centro+Agroanimal+-+Agropecu%C3%A1ria+e+Veterin%C3%A1ria/@-25.4299858,-49.3543378,17z/data=!3m1!4b1!4m5!3m4!1s0x94dce12cd47ab613:0x961d8eeb27379d2e!8m2!3d-25.4299858!4d-49.3521491?hl=pt-BR",
        "lat": -25.429976,
        "lon": -49.352154
    },
    {
        "name": "Pet Shop Novo Horizonte",
        "url": "https://www.google.com/maps/place/Pet+Shop+Novo+Horizonte/@-25.4339137,-49.2193264,17z/data=!3m1!4b1!4m5!3m4!1s0x94dce53a67d402bf:0x11ef336aee9f09c9!8m2!3d-25.4339137!4d-49.2171323",
        "lat": -25.433894,
        "lon": -49.217122
    },
    {
        "name": "Fun Place Petshop",
        "url": "https://www.google.com/maps/place/Fun+Place+Petshop/@-25.401185,-49.2673991,17z/data=!3m1!4b1!4m5!3m4!1s0x94dce6a2f2bf9c61:0xf8ca74cbb9e4ab39!8m2!3d-25.401185!4d-49.265205",
        "lat": -25.401185,
        "lon": -49.265205
    },
    {
        "name": "Pet Shop Santa Felicidade",
        "url": "https://www.google.com/maps/place/Pet+Shop+Santa+Felicidade/@-25.4077486,-49.3415725,17z/data=!3m1!4b1!4m5!3m4!1s0x94dce1bbdcba6273:0x5ffc4f2ad4622e57!8m2!3d-25.4077486!4d-49.3393784",
        "lat": -25.407739,
        "lon": -49.339389
    },
    {
        "name": "Aviário Recanto dos Pássaros",
        "url": "https://www.google.com/maps/place/Avi%C3%A1rio+Recanto+dos+P%C3%A1ssaros/@-25.4289608,-49.2750686,17z/data=!3m1!4b1!4m5!3m4!1s0x94dce412650dfe35:0x7335bb1247b6721c!8m2!3d-25.4289608!4d-49.2728745",
        "lat": -25.428941,
        "lon": -49.272864
    },
    {
        "name": "Pet Happy",
        "url": "https://www.google.com/maps/place/Pet+Happy/@-25.4184281,-49.2661987,17z/data=!3m1!4b1!4m5!3m4!1s0x94dce41801c6e7bf:0x5d1205b7a278986c!8m2!3d-25.4184281!4d-49.2640046",
        "lat": -25.418409,
        "lon": -49.263994
    },
    {
        "name": "Holanda Pet Shop & Agropecuária",
        "url": "https://www.google.com/maps/place/R.+Holanda,+1993+-+Bacacheri,+Curitiba+-+PR,+82540-040/@-25.3911296,-49.2581389,18z/data=!3m1!4b1!4m5!3m4!1s0x94dce693d0429527:0xe7d3c84c6c4008c9!8m2!3d-25.3911296!4d-49.2571616",
        "lat": -25.391120,
        "lon": -49.257160
    },
    {
        "name": "Rochansul PetShop",
        "url": "https://www.google.com/maps/place/Rochansul+PetShop/@-25.4374421,-49.2236311,17z/data=!3m1!4b1!4m5!3m4!1s0x94dce5748d89e8f5:0x2f3c4843f8479915!8m2!3d-25.4374421!4d-49.221437",
        "lat": -25.437432,
        "lon": -49.221426
    },
    {
        "name": "Rei dos Animais",
        "url": "https://www.google.com/maps/place/Rei+dos+Animais/@-25.4867521,-49.2949069,17z/data=!3m1!4b1!4m5!3m4!1s0x94dce3738549ac49:0xb364eaf958e994f9!8m2!3d-25.4867521!4d-49.2927128",
        "lat": -25.486742,
        "lon": -49.292702
    },
    {
        "name": "Outpets",
        "url": "https://www.google.com/maps/place/Outpets/@-25.3907142,-49.2404312,17z/data=!3m1!4b1!4m5!3m4!1s0x94dce71a2eb4e76f:0xdc14433c2bf454d5!8m2!3d-25.3907142!4d-49.2382371",
        "lat": -25.390675,
        "lon": -49.238237
    },
    {
        "name": "Royal Pet",
        "url": "https://www.google.com/maps/place/R.+Prof.+Jo%C3%A3o+Soares+Barcelos,+2099+-+Boqueir%C3%A3o,+Curitiba+-+PR,+81670-080/@-25.491657,-49.2512081,17z/data=!3m1!4b1!4m5!3m4!1s0x94dcfb2f560faec1:0x76185998d2e8c814!8m2!3d-25.491657!4d-49.249014",
        "lat": -25.491647,
        "lon": -49.249003
    },
    {
        "name": "Gato Mia Pet Shop",
        "url": "https://www.google.com/maps/place/Gato+Mia+Pet+Shop/@-25.5181975,-49.2790117,17z/data=!3m1!4b1!4m5!3m4!1s0x94dcfb64a304ca2f:0xe423b5f68cb1c44b!8m2!3d-25.5181975!4d-49.2768176",
        "lat": -25.518188,
        "lon": -49.276818
    },
    {
        "name": "Pet Shop Casa do Bicho",
        "url": "https://www.google.com/maps/place/PET+SHOP+CASA+DO+BICHO/@-25.4086907,-49.226848,17z/data=!3m1!4b1!4m5!3m4!1s0x94dce5e9fadd48fd:0x930b9d69e6d560e6!8m2!3d-25.4086907!4d-49.2246539",
        "lat": -25.408671,
        "lon": -49.224632
    },
    {
        "name": "Curitiba Pet Store",
        "url": "https://www.google.com/maps/place/Curitiba+Pet+Store/@-25.4399757,-49.3456035,17z/data=!3m1!4b1!4m5!3m4!1s0x94dce2211583915f:0xdb3e8a2ed449210d!8m2!3d-25.4399757!4d-49.3434094",
        "lat": -25.439966,
        "lon": -49.343409
    },
    {
        "name": "Centro Paranaense de Medicina Veterinária",
        "url": "https://www.google.com/maps/place/Centro+Paranaense+de+Medicina+Veterin%C3%A1ria/@-25.4157288,-49.2615198,17z/data=!3m1!4b1!4m5!3m4!1s0x94dce42342a1ef95:0x63897040f28505f9!8m2!3d-25.4157288!4d-49.2593257",
        "lat": -25.415719,
        "lon": -49.259315
    },
    {
        "name": "São Chico Animal Center",
        "url": "https://www.google.com/maps/place/S%C3%A3o+Chico+Animal+Center/@-25.4233866,-49.2726644,17z/data=!3m1!4b1!4m5!3m4!1s0x94dce41118b46593:0x9c794151bb35c49d!8m2!3d-25.4233866!4d-49.2704703",
        "lat": -25.423367,
        "lon": -49.270481
    },
    {
        "name": "Amigo Bicho Pet Shop",
        "url": "https://www.google.com/maps/place/Amigo+Bicho+Pet+Shop+e+consult%C3%B3rio+Veterin%C3%A1rio/@-25.460459,-49.30032,17z/data=!3m1!4b1!4m5!3m4!1s0x94dce37641d31db9:0x6d02ae0927a14429!8m2!3d-25.460459!4d-49.2981259",
        "lat": -25.460440,
        "lon": -49.298126
    },
    {
        "name": "Pet Hauer Pet Shop",
        "url": "https://www.google.com/maps/place/Pet+Hauer+Pet+Shop/@-25.485932,-49.2476761,17z/data=!3m1!4b1!4m5!3m4!1s0x94dcfb2988d8cbeb:0xa984e4165bebebad!8m2!3d-25.485932!4d-49.245482",
        "lat": -25.485913,
        "lon": -49.245482
    },
    {
        "name": "Aviário D'tudo",
        "url": "https://www.google.com/maps/place/Avi%C3%A1rio+D'tudo/@-25.503596,-49.2743659,17z/data=!3m1!4b1!4m5!3m4!1s0x94dcfbee2dd65903:0x647504604f310aa4!8m2!3d-25.503596!4d-49.2721718",
        "lat": -25.503567,
        "lon": -49.272161
    },
    {
        "name": "Lua Pet Shop",
        "url": "https://www.google.com/maps/place/Lua+Pet+Shop/@-25.482841,-49.3376884,17z/data=!3m1!4b1!4m5!3m4!1s0x94dce2ef8d9980d7:0x63df6a464af38dc!8m2!3d-25.482841!4d-49.3354943",
        "lat": -25.482831,
        "lon": -49.335484
    },
    {
        "name": "Paraíso Animal",
        "url": "https://www.google.com/maps/place/Para%C3%ADso+Animal+Pet+Store/@-25.5117103,-49.2981441,17z/data=!3m1!4b1!4m5!3m4!1s0x94dcfcbb6427ffdf:0x94d891bd3b26f3f9!8m2!3d-25.5117103!4d-49.29595",
        "lat": -25.511681,
        "lon": -49.295939
    },
    {
        "name": "Vida de Cachorro (Shopping Popular)",
        "url": "https://www.google.com/maps/place/R.+Andr%C3%A9+Jo%C3%A3o+Gasparin,+170+-+Novo+Mundo,+Curitiba+-+PR,+81020-240/@-25.4920302,-49.2941981,17z/data=!3m1!4b1!4m5!3m4!1s0x94dce3518824532d:0x226d834894e6dcb6!8m2!3d-25.4920302!4d-49.292004",
        "lat": -25.492001,
        "lon": -49.291993
    },
    {
        "name": "Aviário e Petshop Amigo dos Bichos",
        "url": "https://www.google.com/maps/place/Avi%C3%A1rio+e+Petshop+Amigo+dos+Bichos/@-25.5016885,-49.3090092,16z/data=!4m8!1m2!2m1!1spet+shop!3m4!1s0x0:0x777cc850c0aa472b!8m2!3d-25.5017133!4d-49.3044707",
        "lat": -25.501669,
        "lon": -49.304449
    },
    {
        "name": "Pet Shop Mon Petit",
        "url": "https://www.google.com/maps/place/Pet+Shop+Mon+Petit/@-25.5039671,-49.2954584,17z/data=!3m1!4b1!4m5!3m4!1s0x94dcfcae34a48757:0xf8ab74552a922542!8m2!3d-25.5039671!4d-49.2932643",
        "lat": -25.503967,
        "lon": -49.293254
    },
    {
        "name": "Pet Shop Souza",
        "url": "https://www.google.com/maps/place/Pet+Shop+Souza/@-25.4365783,-49.35076,17z/data=!3m1!4b1!4m5!3m4!1s0x94dce1f5ec9e71ef:0x422ae7372935121d!8m2!3d-25.4365783!4d-49.3485659",
        "lat": -25.436569,
        "lon": -49.348566
    },
    {
        "name": "Pet Shop Casa do Produtor",
        "url": "https://www.google.com/maps/place/Pet+Shop+Casa+do+Produtor/@-25.443222,-49.2656061,17z/data=!3m1!4b1!4m5!3m4!1s0x94dce460a673aae3:0x44452d50d8fae647!8m2!3d-25.443222!4d-49.263412",
        "lat": -25.443203,
        "lon": -49.263401
    },
    {
        "name": "Pet Shop Casa do Produtor",
        "url": "https://www.google.com/maps/place/Av.+N.+Sra.+Aparecida,+661+-+Semin%C3%A1rio,+Curitiba+-+PR,+80310-100/@-25.4496838,-49.3072137,17z/data=!3m1!4b1!4m5!3m4!1s0x94dce3bd7a7dc617:0x7feaaa6441999ffd!8m2!3d-25.4496838!4d-49.3050196",
        "lat": -25.449655,
        "lon": -49.305009
    },
    {
        "name": "Pet Batel",
        "url": "https://www.google.com/maps/place/Pet+Batel/@-25.4464242,-49.2924893,17z/data=!3m1!4b1!4m5!3m4!1s0x94dce38f55d88505:0x721a30b2369de67f!8m2!3d-25.4464242!4d-49.2902952",
        "lat": -25.446405,
        "lon": -49.290295
    },
    {
        "name": "Aviário Santa Fé",
        "url": "https://www.google.com/maps/place/Avi%C3%A1rio+Santa+F%C3%A9/@-25.4688652,-49.2057736,17z/data=!3m1!4b1!4m5!3m4!1s0x94dcfaaa868bd091:0xd7bce924a1b6dd2!8m2!3d-25.4688652!4d-49.2035795",
        "lat": -25.468836,
        "lon": -49.203580
    },
    {
        "name": "Avipec - Pinheirinho",
        "url": "https://www.google.com/maps/place/Avipec+Pinheirinho/@-25.5256099,-49.2998895,17z/data=!3m1!4b1!4m5!3m4!1s0x94dcfc91bacbe66f:0xef0d56c4a653e196!8m2!3d-25.5256099!4d-49.2976954",
        "lat": -25.525581,
        "lon": -49.297695
    },
    {
        "name": "Avipec - São José dos Pinhais",
        "url": "https://www.google.com/maps/place/Avipec+S%C3%A3o+Jos%C3%A9+Dos+Pinhais/@-25.5443156,-49.1926406,17z/data=!3m1!4b1!4m5!3m4!1s0x94dcf76a866f7da7:0x4f67ada692946a2c!8m2!3d-25.5443156!4d-49.1904465",
        "lat": -25.544306,
        "lon": -49.190436
    },
    {
        "name": "Agropecuária Empório Rural",
        "url": "https://www.google.com/maps/place/Agropecuaria+Emporio+Rural/@-25.5629579,-49.2094689,17z/data=!4m12!1m6!3m5!1s0x94dcf9e6ea63c1c3:0x8e6dcaf6be17c5c1!2sAgropecuaria+Emporio+Rural!8m2!3d-25.5629579!4d-49.2094689!3m4!1s0x94dcf9e6ea63c1c3:0x8e6dcaf6be17c5c1!8m2!3d-25.5629579!4d-49.2094689",
        "lat": -25.562939,
        "lon": -49.209453
    },
    {
        "name": "Vip Pet Shop",
        "url": "https://www.google.com/maps/place/Vip+Pet+Shop/@-25.5447435,-49.2040795,17z/data=!3m1!4b1!4m5!3m4!1s0x94dcf75549618e89:0x680b639f6f4def48!8m2!3d-25.5447435!4d-49.2018854",
        "lat": -25.544724,
        "lon": -49.201885
    },
    {
        "name": "Pet Shop MM",
        "url": "https://www.google.com/maps/place/Pet+Shop+MM/@-25.510181,-49.1777051,17z/data=!3m1!4b1!4m5!3m4!1s0x94dcf0eee7e45f5b:0xe2f9e569a3c407fb!8m2!3d-25.510181!4d-49.175511",
        "lat": -25.510162,
        "lon": -49.175500
    },
    {
        "name": "Espaço do Bicho",
        "url": "https://www.google.com/maps/place/ESPA%C3%87O+DO+BICHO/@-25.4385931,-49.1914687,17z/data=!3m1!4b1!4m5!3m4!1s0x94dcef938fcdbc81:0x1df95b0e1a06c036!8m2!3d-25.4385931!4d-49.1892746",
        "lat": -25.438574,
        "lon": -49.189264
    },
    {
        "name": "Belo Trato Pet Shop",
        "url": "https://www.google.com/maps/place/Belo+Trato+Pet+Shop/@-25.4419835,-49.1750351,17z/data=!3m1!4b1!4m5!3m4!1s0x94dcefc5ff233e6d:0x14bb5af51673fcca!8m2!3d-25.4419835!4d-49.172841",
        "lat": -25.441964,
        "lon": -49.172841
    },
    {
        "name": "Casa das Rações",
        "url": "https://www.google.com/maps/place/Casa+das+Ra%C3%A7%C3%B5es/@-25.4346125,-49.1773901,17z/data=!3m1!4b1!4m5!3m4!1s0x94dcefbdc923034d:0x5951f644a468c652!8m2!3d-25.4346125!4d-49.175196",
        "lat": -25.434593,
        "lon": -49.175185
    },
    {
        "name": "Agrobarras",
        "url": "https://www.google.com/maps/place/Agrobarras+Com%C3%A9rcio+de+Produtos+Agropecu%C3%A1rios+Ltda/@-25.3696123,-49.0784529,17z/data=!3m1!4b1!4m5!3m4!1s0x94dcecec38738f9d:0x878c17e655c40eb2!8m2!3d-25.3696123!4d-49.0762588",
        "lat": -25.369573,
        "lon": -49.076270
    },
    {
        "name": "Agropecuária Fernandes",
        "url": "https://www.google.com/maps/place/Agropecu%C3%A1ria+Fernandes/@-25.377962,-49.3601411,17z/data=!3m1!4b1!4m5!3m4!1s0x94dce0190f4d3aff:0xf2b04fc27e3fdc7c!8m2!3d-25.377962!4d-49.357947",
        "lat": -25.377952,
        "lon": -49.357947
    },
    {
        "name": "Aviário e Pet Shop Favoreto",
        "url": "https://www.google.com/maps/place/AVI%C3%81RIO+E+PET+SHOP+FAVORETO/@-25.3731446,-49.4253671,17z/data=!3m1!4b1!4m5!3m4!1s0x94dd21c32c3572f3:0xfb4ab7e5f6f4da72!8m2!3d-25.3731446!4d-49.423173",
        "lat": -25.373125,
        "lon": -49.423173
    },
    {
        "name": "Agronano",
        "url": "https://www.google.com/maps/place/Agronano/@-25.4581236,-49.5477139,17z/data=!3m1!4b1!4m5!3m4!1s0x94dd176b1b462215:0xf4fb5b389804c55!8m2!3d-25.4581236!4d-49.5455198",
        "lat": -25.458124,
        "lon": -49.545520
    },
    {
        "name": "Pet Shop K8",
        "url": "https://www.google.com/maps/place/Pet+Shop+K8/@-25.4635356,-49.5279707,17z/data=!3m1!4b1!4m5!3m4!1s0x94dd1947df17d489:0xa0252385b940919b!8m2!3d-25.4635356!4d-49.5257766",
        "lat": -25.463526,
        "lon": -49.525777
    },
    {
        "name": "Aviário Crystal Pets",
        "url": "https://www.google.com/maps/place/R.+Minas+Gerais,+743+-+Costeira,+Arauc%C3%A1ria+-+PR,+83709-000/@-25.605836,-49.3708014,17z/data=!3m1!4b1!4m5!3m4!1s0x94dd01fc3aeee2c7:0x6dc0bc0f70f42cc5!8m2!3d-25.605836!4d-49.3686073",
        "lat": -25.605797,
        "lon": -49.368607
    },
    {
        "name": "Casa do Agricultor",
        "url": "https://www.google.com/maps/place/Casa+do+Agr%C3%ADcultor/@-26.0274063,-48.8567866,17z/data=!3m1!4b1!4m5!3m4!1s0x94dc04ec7494dfd9:0x21bc1eb37d0ee24f!8m2!3d-26.0274063!4d-48.8545925",
        "lat": -26.027397,
        "lon": -48.854582
    },
    {
        "name": "Costa Produtos Agropecuários",
        "url": "https://www.google.com/maps/place/Agropecu%C3%A1ria+Costa/@-26.0355191,-48.8580379,17z/data=!3m1!4b1!4m5!3m4!1s0x94dc04943969f837:0x2005d6ad08ea6be1!8m2!3d-26.0355191!4d-48.8564865",
        "lat": -26.035509,
        "lon": -48.856488
    },
    {
        "name": "Animal House",
        "url": "https://www.google.com/maps/place/ANIMAL+HOUSE/@-26.1149455,-48.6022402,17z/data=!4m5!3m4!1s0x94d956d4408b9d7f:0x625aaf7e59914a3a!8m2!3d-26.1149287!4d-48.6023875",
        "lat": -26.114897,
        "lon": -48.602374
    },
    {
        "name": "Agrocomercial São Sebastião",
        "url": "https://www.google.com/maps/place/R.+Frontin,+181,+Itapo%C3%A1+-+SC,+89249-000/@-26.0771129,-48.6137529,17z/data=!3m1!4b1!4m5!3m4!1s0x94d9565bc704b90d:0xac097ab0dd4a136d!8m2!3d-26.0771129!4d-48.6115588",
        "lat": -26.077094,
        "lon": -48.611548
    },
    {
        "name": "Pet Shop Mundo Animal",
        "url": "https://www.google.com/maps/place/Avi%C3%A1rio+Pet+Shop+Guaratuba+Mundo+Animal/@-25.9001806,-48.567962,19z/data=!4m5!3m4!1s0x94dbfbe2a21818bd:0x6b8760a7b9d23e93!8m2!3d-25.9003538!4d-48.567978",
        "lat": -25.9001806,
        "lon": -48.567962
    },
    {
        "name": "Centro Veterinário Dr Puppy",
        "url": "https://www.google.com/maps/place/Cl%C3%ADnica+Veterin%C3%A1ria+Doutor+Puppy/@-25.878784,-48.575372,19z/data=!4m5!3m4!1s0x0:0xdf6eedd80b619a5e!8m2!3d-25.8787552!4d-48.574762?hl=pt-BR",
        "lat": -25.878755,
        "lon": -48.574762
    },
    {
        "name": "Aviário & Pet Shop Faro Fino",
        "url": "https://www.google.com/maps/place/Aviario+%26+Pet+Shop+Faro+Fino/@-25.8751149,-48.5785866,17z/data=!3m1!4b1!4m5!3m4!1s0x94dbf00a5f4aad07:0x5d70514b55ca9793!8m2!3d-25.8751197!4d-48.5763925",
        "lat": -25.875120,
        "lon": -48.576392
    },
    {
        "name": "Aviário & Pet Shop Faro Fino - Filial",
        "url": "https://www.google.com/maps/place/Aviario+%26+Pet+Shop+Faro+Fino+-+Filial/@-25.8823115,-48.5806846,18z/data=!3m1!4b1!4m5!3m4!1s0x94dbfb568c87ae55:0x8b5409528875df7c!8m2!3d-25.8823115!4d-48.5796491",
        "lat": -25.882287,
        "lon": -48.579647
    },
    {
        "name": "Amis Vet",
        "url": "https://www.google.com/maps/place/AMIS+VET+CLINICA+VETERINARIA/@-25.8763451,-48.5760951,17z/data=!4m12!1m6!3m5!1s0x94dbfa9e13ce97a5:0x7ba489fd59beb8d5!2sAMIS+VET+CLINICA+VETERINARIA!8m2!3d-25.8765586!4d-48.5760342!3m4!1s0x94dbfa9e13ce97a5:0x7ba489fd59beb8d5!8m2!3d-25.8765586!4d-48.5760342",
        "lat": -25.876558,
        "lon": -48.576033
    },
    {
        "name": "VETIS Clínica Veterinária",
        "url": "https://www.google.com/maps/place/VETIS+Clinica+Veterin%C3%A1ria/@-25.8840354,-48.5815895,17z/data=!3m1!4b1!4m5!3m4!1s0x94dbfa98b9aa9b1d:0xabe8a2e74274c059!8m2!3d-25.8840354!4d-48.5793954",
        "lat": -25.884026,
        "lon": -48.579395
    },
    {
        "name": "AgroPetMaq",
        "url": "https://www.google.com/maps/place/AgroPetMaq/@-25.8102637,-48.5407906,17z/data=!3m1!4b1!4m5!3m4!1s0x94dbee3d27638bd9:0xe4c0ac20da986d47!8m2!3d-25.8102685!4d-48.5385965",
        "lat": -25.810267,
        "lon": -48.538596
    },
    {
        "name": "Miados e Latidos Pet Shop",
        "url": "https://www.google.com/maps/place/Miados+e+Latidos+Pet+Shop/@-25.8180464,-48.5412285,17z/data=!3m1!4b1!4m5!3m4!1s0x94dbee3628a8ca95:0x3d81e6939fdec71e!8m2!3d-25.8180512!4d-48.5390344",
        "lat": -25.818048,
        "lon": -48.539033
    },
    {
        "name": "Bicho Comilão",
        "url": "https://www.google.com/maps/place/Adestra+Pet/@-25.761211,-48.509263,16.04z/data=!4m8!1m2!2m1!1spet+shop!3m4!1s0x0:0x82ea15c10001bb5d!8m2!3d-25.7615952!4d-48.5093164",
        "lat": -25.761559,
        "lon": -48.509320
    },
    {
        "name": "Agro Comercial Morretes",
        "url": "https://www.google.com/maps/place/Agro+Comercial+Morretes/@-25.4808716,-48.8326398,17z/data=!3m1!4b1!4m5!3m4!1s0x94dc87726ddcfe2b:0xd05d5ac132fe4608!8m2!3d-25.4808765!4d-48.8304457",
        "lat": -25.480876,
        "lon": -48.830446
    },
    {
        "name": "Agromania Concessionária STIHL",
        "url": "https://www.google.com/maps/place/Agromania+Concession%C3%A1ria+STIHL/@-25.4842,-48.8304639,17z/data=!3m1!4b1!4m5!3m4!1s0x94dc87a17ea42763:0xe818114ee2546262!8m2!3d-25.4842!4d-48.8282698",
        "lat": -25.484171,
        "lon": -48.828259
    },
    {
        "name": "Agro Aviário Praia de Leste",
        "url": "https://www.google.com/maps/place/Aviario+Praia+De+Leste/@-25.6979904,-48.4782951,17z/data=!3m1!4b1!4m5!3m4!1s0x94dbeb59b28d1c8d:0xdc2abc15681e5ba2!8m2!3d-25.6979953!4d-48.476101",
        "lat": -25.697995,
        "lon": -48.476103
    },
    {
        "name": "BichoZen Pet Store",
        "url": "https://www.google.com/maps/place/BichoZen+Pet+Store/@-25.6841024,-48.4704455,17z/data=!3m1!4b1!4m5!3m4!1s0x94dbeb4d522d16a3:0xe3d531e0d681fc9d!8m2!3d-25.6841024!4d-48.4682568",
        "lat": -25.684085,
        "lon": -48.468260
    },
    {
        "name": "Universo Pet",
        "url": "https://www.google.com/maps/place/UniversoPet/@-25.6178258,-48.420944,17z/data=!3m1!4b1!4m5!3m4!1s0x94db9597fd8daaad:0xc801d5ea3ad04923!8m2!3d-25.6178258!4d-48.4187553",
        "lat": -25.617839,
        "lon": -48.418735
    },
    {
        "name": "Boutique dos Cachorros",
        "url": "https://www.google.com/maps/place/25%C2%B039'19.0%22S+48%C2%B027'01.3%22W/@-25.6552658,-48.4509155,19z/data=!3m1!4b1!4m9!1m2!2m1!1spet+shop!3m5!1s0x0:0x0!7e2!8m2!3d-25.6552665!4d-48.4503674",
        "lat": -25.6552658,
        "lon": -48.4509155
    },
    {
        "name": "Amigão Pet Shop",
        "url": "https://www.google.com/maps/place/Amigao+pet+shop/@-25.6737906,-48.4608079,18z/data=!4m8!1m2!2m1!1spet+shop+amig%C3%A3o!3m4!1s0x0:0x443be9f40d3520f6!8m2!3d-25.6739047!4d-48.460629",
        "lat": -25.673858,
        "lon": -48.460626
    },
    {
        "name": "Agrotop",
        "url": "https://www.google.com/maps/place/PR-412,+1446+-+Majoranine,+Pontal+do+Paran%C3%A1+-+PR,+83255-000/@-25.6856932,-48.4701803,18z/data=!3m1!4b1!4m8!1m2!2m1!1seletro!3m4!1s0x94dbeb529bed8969:0xf2b33b561c35d1ba!8m2!3d-25.6856956!4d-48.4690833",
        "lat": -25.685658,
        "lon": -48.469086
    },
    {
        "name": "Aviário Unicão",
        "url": "https://www.google.com/maps/place/Aviario+Unicao+Banho+E+Tosa+Racoes/@-25.5815171,-48.3620996,19.04z/data=!4m5!3m4!1s0x94dbbe62ffe62a0b:0xcd6715322487bbbf!8m2!3d-25.5813216!4d-48.3613632",
        "lat": -25.581851,
        "lon": -48.362509
    },
    {
        "name": "Casa Pontal Pet Shop e Conveniência",
        "url": "https://www.google.com/maps/place/Casa+Pontal+Pet+Shop+e+Conveni%C3%AAncia/@-25.6401998,-48.4408615,17z/data=!3m1!4b1!4m5!3m4!1s0x94db950207c3c551:0x27dfac18a41af866!8m2!3d-25.6401998!4d-48.4386674",
        "lat": -25.640190,
        "lon": -48.438657
    },
    {
        "name": "Aviário Tabuleiro",
        "url": "https://www.google.com/maps/place/Avi%C3%A1rio+Tabuleiro/@-25.6526405,-48.449708,17z/data=!3m1!4b1!4m5!3m4!1s0x94db94e60b4a3997:0x3099dfe8621c9620!8m2!3d-25.6526405!4d-48.4475139",
        "lat": -25.652621,
        "lon": -48.447503
    },
    {
        "name": "Pet-shop Nutrimax",
        "url": "https://www.google.com/maps/place/Pet-shop+Nutrimax/@-25.5221959,-48.5175754,17z/data=!3m1!4b1!4m5!3m4!1s0x94db9a5f3a9bc891:0x668c8d05f3db89a5!8m2!3d-25.5221959!4d-48.5153813",
        "lat": -25.522188,
        "lon": -48.515376
    },
    {
        "name": "Clínica Veterinária Pêlos e Patas",
        "url": "https://www.google.com/maps/place/Cl%C3%ADnica+Veterin%C3%A1ria+P%C3%AAlos+e+Patas/@-25.5184901,-48.5214811,17z/data=!3m1!4b1!4m5!3m4!1s0x94db9a579a99dbd1:0x9b9dc37a00091193!8m2!3d-25.518495!4d-48.519287",
        "lat": -25.518466,
        "lon": -48.519276
    },
    {
        "name": "MyPet",
        "url": "https://www.google.com/maps/place/MY+PET/@-25.5129988,-48.5084066,17z/data=!3m1!4b1!4m5!3m4!1s0x94db9b218c3d2d4f:0xe3fa63c75a991c68!8m2!3d-25.5129988!4d-48.5062125",
        "lat": -25.512859,
        "lon": -48.505935
    },
    {
        "name": "Aviário do Japa",
        "url": "https://www.google.com/maps/place/R.+Conselheiro+Corr%C3%AAa,+1490+-+Bockmann,+Paranagu%C3%A1+-+PR,+83206-280/@-25.5191148,-48.5224393,18z/data=!3m1!4b1!4m13!1m7!3m6!1s0x94db9ae5c93dc3ed:0xa7b55278e4a8ae8b!2sParanagu%C3%A1+-+PR!3b1!8m2!3d-25.5148758!4d-48.5226223!3m4!1s0x94db9af70b6f985b:0x67a4e8f9c602f0d7!8m2!3d-25.5191148!4d-48.5215168",
        "lat": -25.519173,
        "lon": -48.521568
    },
    {
        "name": "Aviário Cão Peão",
        "url": "https://www.google.com/maps/place/Avi%C3%A1rio+C%C3%A3o+Pe%C3%A3o/@-25.526538,-48.5239027,18.5z/data=!4m5!3m4!1s0x0:0x1f1c51527e5e63a8!8m2!3d-25.5266501!4d-48.523787",
        "lat": -25.526639,
        "lon": -48.523783
    },
    {
        "name": "Filhotes e Fricotes Pet Shop",
        "url": "https://www.google.com/maps/place/Filhotes+e+Fricotes+Pet+Shop/@-25.5221075,-48.5222985,17z/data=!4m12!1m6!3m5!1s0x94db9b61e6504979:0x1363142b471a0caa!2sFilhotes+e+Fricotes+Pet+Shop!8m2!3d-25.5221075!4d-48.5201044!3m4!1s0x94db9b61e6504979:0x1363142b471a0caa!8m2!3d-25.5221075!4d-48.5201044",
        "lat": -25.522088,
        "lon": -48.520104
    },
    {
        "name": "Aviário Canarinho",
        "url": "https://www.google.com/maps/place/Avi%C3%A1rio+Canarinho/@-25.5422949,-48.5338542,16z/data=!4m8!1m2!2m1!1saviario+!3m4!1s0x0:0xe4aca369f379cd20!8m2!3d-25.5418401!4d-48.5313213",
        "lat": -25.541811,
        "lon": -48.531290
    },
    {
        "name": "Aviário Pe Pet",
        "url": "https://www.google.com/maps/place/Avi%C3%A1rio+Pe+Pet+(pepet)/@-25.556723,-48.5584831,17z/data=!3m1!4b1!4m5!3m4!1s0x94db9aaaff4544bf:0x97d5bf763e16f514!8m2!3d-25.556723!4d-48.556289",
        "lat": -25.556713,
        "lon": -48.556289
    },
    {
        "name": "Litoagro",
        "url": "https://www.google.com/maps/place/Litoagro/@-25.5198952,-48.5379742,17z/data=!3m1!4b1!4m5!3m4!1s0x94db9ae6fbb5de99:0x929522c89164559!8m2!3d-25.5198952!4d-48.5357801",
        "lat": -25.519876,
        "lon": -48.535759
    },
    {
        "name": "Aviário Campo Verde",
        "url": "https://www.google.com/maps/place/Avi%C3%A1rio+Campo+Verde/@-25.5629114,-48.566536,17z/data=!3m1!4b1!4m5!3m4!1s0x94db8ff8c80fe127:0x447f77177a9fd6bc!8m2!3d-25.5629114!4d-48.5643419",
        "lat": -25.562882,
        "lon": -48.564342
    },
    {
        "name": "Aviário Campo Verde - Filial",
        "url": "https://www.google.com/maps/place/R.+Subtenente+Onofre+Moreira+da+Rocha,+64-116+-+Vila+Garcia,+Paranagu%C3%A1+-+PR/@-25.5788783,-48.5748553,17.67z/data=!4m8!1m2!2m1!1saviario!3m4!1s0x94db8fee8d9b9b09:0xf9788f499adf9fbd!8m2!3d-25.5785656!4d-48.5731844",
        "lat": -25.578751,
        "lon": -48.573433
    },
    {
        "name": "Aviário Terra Fértil",
        "url": "https://www.google.com/maps/place/Terra+F%C3%A9rtil+Antonina/@-25.4349063,-48.7331882,17z/data=!3m1!4b1!4m5!3m4!1s0x94db7fd9b6393ef1:0xb9f38dc20d973ce2!8m2!3d-25.4349063!4d-48.7309995",
        "lat": -25.434877,
        "lon": -48.731005
    },
    {
        "name": "Aviário Terra Fértil Centro",
        "url": "https://www.google.com/maps/place/Avi%C3%A1rio+Terra+F%C3%A9rtil+Centro/@-25.4307814,-48.7157433,17z/data=!3m1!4b1!4m5!3m4!1s0x94db7fdbd22f353d:0x53a547a2b5a54399!8m2!3d-25.4307814!4d-48.7135492",
        "lat": -25.430762,
        "lon": -48.713560
    },
    {
        "name": "Aviário da Família",
        "url": "https://www.google.com/maps/place/Aviario+Da+Familia/@-25.4349787,-48.7142855,17z/data=!3m1!4b1!4m5!3m4!1s0x94db7fddadad7b4d:0xd4678077d5891816!8m2!3d-25.4349787!4d-48.7120914",
        "lat": -25.434959,
        "lon": -48.712091
    },
    {
        "name": "Batel Materiais",
        "url": "https://www.google.com/maps/place/Batel+Materiais/@-25.434912,-48.7310611,17z/data=!3m1!4b1!4m5!3m4!1s0x94db7fd9b637140d:0x9244d770da6bc9f6!8m2!3d-25.434912!4d-48.728867",
        "lat": -25.434893,
        "lon": -48.728878
    },
    {
        "name": "Tóti Loja Pet",
        "url": "https://www.google.com/maps/place/T%C3%B3ti+Loja+Pet/@-26.456512,-49.1086461,17z/data=!3m1!4b1!4m5!3m4!1s0x94de9419825827bb:0x5d1a567f93f4dbb2!8m2!3d-26.456512!4d-49.106452",
        "lat": -26.456483,
        "lon": -49.106452
    },
    {
        "name": "Pet Shop Adriano",
        "url": "https://www.google.com/maps/place/Pet+Shop+Adriano/@-26.4892815,-49.0581723,17z/data=!3m1!4b1!4m5!3m4!1s0x94de956a3befa7ed:0x46da0967cd331c21!8m2!3d-26.4892815!4d-49.0559782",
        "lat": -26.489272,
        "lon": -49.055967
    },
    {
        "name": "4 Patas Estética Animal",
        "url": "https://www.google.com/maps/place/4+Patas+Est%C3%A9tica+Animal/@-26.3062001,-48.8515607,17z/data=!3m1!4b1!4m5!3m4!1s0x94deb048ac4f42e3:0x6888fb1bcd2b8cf8!8m2!3d-26.3062001!4d-48.8493666",
        "lat": -26.306190,
        "lon": -48.849367
    },
    {
        "name": "Clinivet Milu - Clínica Veterinária e Pet Shop",
        "url": "https://www.google.com/maps/place/Clinivet+Milu+-+Cl%C3%ADnica+Veterinaria+e+Pet+Shop/@-26.2625537,-48.81346,17z/data=!3m1!4b1!4m5!3m4!1s0x94deae1b13aeb649:0x251857d5834b0f3e!8m2!3d-26.2625537!4d-48.8112659",
        "lat": -26.262544,
        "lon": -48.811266
    },
    {
        "name": "Duhan Tamy's",
        "url": "https://www.google.com/maps/place/Duhan+Tamy's/@-26.273026,-48.8283751,17z/data=!3m1!4b1!4m5!3m4!1s0x94deae2715346483:0xa7abf786ba3f0381!8m2!3d-26.273026!4d-48.826181",
        "lat": -26.273016,
        "lon": -48.826170
    },
    {
        "name": "Clínica Veterinária Bicho de Estimação",
        "url": "https://www.google.com/maps/place/Cl%C3%ADnica+Veterinaria+Bicho+de+Estima%C3%A7%C3%A3o/@-26.2746629,-48.8652912,17z/data=!3m1!4b1!4m5!3m4!1s0x94deb01987afed69:0xe6ffbc25734234f4!8m2!3d-26.2746629!4d-48.8630971",
        "lat": -26.274644,
        "lon": -48.863097
    },
    {
        "name": "Peter Shop Rações",
        "url": "https://www.google.com/maps/place/Peter+Shop+Ra%C3%A7%C3%B5es/@-26.2737288,-48.8839359,17z/data=!3m1!4b1!4m5!3m4!1s0x94dea5607638784d:0x66b5056308589ac8!8m2!3d-26.2737288!4d-48.8817418",
        "lat": -26.273710,
        "lon": -48.881742
    },
    {
        "name": "Empório Pet Patas & Focinhos",
        "url": "https://www.google.com/maps/place/Emp%C3%B3rio+Pet+Patas+%26+Focinhos/@-26.3336317,-48.8374603,17z/data=!3m1!4b1!4m5!3m4!1s0x94deb11f2ff667e3:0xf31f67b37fdf9a03!8m2!3d-26.3336317!4d-48.8352662",
        "lat": -26.333612,
        "lon": -48.835266
    },
    {
        "name": "Agropet Empório Animal",
        "url": "https://www.google.com/maps/place/R.+Ten.+Ant%C3%B4nio+Jo%C3%A3o,+1534+-+Jardim+Sofia,+Joinville+-+SC,+89222-401/@-26.2626155,-48.8473585,17z/data=!3m1!4b1!4m5!3m4!1s0x94deafc98c41e059:0x78d1dd262580673f!8m2!3d-26.2626155!4d-48.8451644",
        "lat": -26.262587,
        "lon": -48.845164
    },
    {
        "name": "Pet Joy",
        "url": "https://www.google.com/maps/place/PET+JOY/@-26.2690038,-48.8762961,17z/data=!3m1!4b1!4m5!3m4!1s0x94deaf8c8a371d2f:0x852c3b4b94f40e7e!8m2!3d-26.2690038!4d-48.874102",
        "lat": -26.268975,
        "lon": -48.874102
    },
    {
        "name": "Haus Tier Centro Veterinário",
        "url": "https://www.google.com/maps/place/HAUS+TIER+Centro+Veterin%C3%A1rio/@-26.203,-48.9096061,17z/data=!3m1!4b1!4m5!3m4!1s0x94dea668d4ccc4dd:0xaaacfabb81737c5!8m2!3d-26.203!4d-48.907412",
        "lat": -26.202981,
        "lon": -48.907412
    },
    {
        "name": "Mania de Pet",
        "url": "https://www.google.com/maps/place/Mania+de+Pet/@-26.2402241,-48.8034735,17z/data=!3m1!4b1!4m5!3m4!1s0x94deae766f300001:0x193ad60dbda9c6b!8m2!3d-26.2402241!4d-48.8012794",
        "lat": -26.240214,
        "lon": -48.801269
    },
    {
        "name": "Mapet Center",
        "url": "https://www.google.com/maps/place/Mapet+Center/@-26.2771605,-48.8489121,17z/data=!3m1!4b1!4m5!3m4!1s0x94deb04490c55211:0x3a426334c0389c00!8m2!3d-26.2771605!4d-48.846718",
        "lat": -26.277151,
        "lon": -48.846707
    },
    {
        "name": "ZumPet (Agropecuária Canarinho)",
        "url": "https://www.google.com/maps/place/ZumPet+(Agropecu%C3%A1ria+Canarinho)/@-26.3404174,-48.8249617,17z/data=!3m1!4b1!4m5!3m4!1s0x94deb139da9d5247:0x2d7ae7612987db7e!8m2!3d-26.3404174!4d-48.8227676",
        "lat": -26.340398,
        "lon": -48.822778
    },
    {
        "name": "Catarinna's Agropet",
        "url": "https://www.google.com/maps/place/Pet+shop+Catarinna's+Agropet/@-26.3272989,-48.8678256,17.5z/data=!4m8!1m2!2m1!1sCATARINNAS+AGROPET+joinville!3m4!1s0x0:0x9925069bd42fe6b5!8m2!3d-26.3278644!4d-48.8650846",
        "lat": -26.327843,
        "lon": -48.865075
    },
    {
        "name": "Agromer Agropecuária",
        "url": "https://www.google.com/maps/place/R.+Laura+Auler,+Joinville+-+SC/@-26.3667421,-48.8456035,17.83z/data=!4m5!3m4!1s0x94deb72f18ca04b9:0x8093be67d5227617!8m2!3d-26.3667218!4d-48.8446649",
        "lat": -26.366726,
        "lon": -48.844661
    },
    {
        "name": "Agropecuária Fênix",
        "url": "https://www.google.com/maps/place/26%C2%B021'03.1%22S+48%C2%B047'48.5%22W/@-26.350848,-48.7990031,17z/data=!3m1!4b1!4m5!3m4!1s0x0:0x0!8m2!3d-26.350848!4d-48.796809",
        "lat": -26.350848,
        "lon": -48.796809
    },
    {
        "name": "Agronec",
        "url": "https://www.google.com/maps/place/Agronec+Agropecu%C3%A1ria/@-26.3617865,-48.8135546,17z/data=!3m1!4b1!4m5!3m4!1s0x94deb6c779731da9:0x5af304918e83a2a5!8m2!3d-26.3617865!4d-48.8113605",
        "lat": -26.361767,
        "lon": -48.811361
    },
    {
        "name": "Agropecuária Cão Fiel",
        "url": "https://www.google.com/maps/place/Agropecu%C3%A1ria+C%C3%A3o+Fiel/@-26.3210419,-48.8183995,17z/data=!3m1!4b1!4m5!3m4!1s0x94deb16db0a3bdd3:0xe546e0398f17eced!8m2!3d-26.3210467!4d-48.8162054",
        "lat": -26.321042,
        "lon": -48.816205
    },
    {
        "name": "Agropecuária JM",
        "url": "https://www.google.com/maps/place/Agropecu%C3%A1ria+JM/@-26.3285122,-48.91021,17z/data=!3m1!4b1!4m5!3m4!1s0x94debaef1b5ee3a7:0xad8331f9bd722ae8!8m2!3d-26.3285122!4d-48.9080159",
        "lat": -26.328483,
        "lon": -48.908027
    },
    {
        "name": "Agropecuária Gira Sol",
        "url": "https://www.google.com/maps/place/Agropecu%C3%A1ria+Gira+Sol/@-26.241185,-48.8029041,17z/data=!3m1!4b1!4m5!3m4!1s0x94deae75ef8328cb:0x5f1be9f74c35bce1!8m2!3d-26.241185!4d-48.80071",
        "lat": -26.241156,
        "lon": -48.800699
    },
    {
        "name": "Agropecuária Manchester",
        "url": "https://www.google.com/maps/place/Agropecu%C3%A1ria+Manchester/@-26.2977077,-48.8478759,17z/data=!3m1!4b1!4m5!3m4!1s0x94deb036603125e3:0xe04a54278d8dda8f!8m2!3d-26.2977125!4d-48.8456818",
        "lat": -26.297710,
        "lon": -48.845675
    },
    {
        "name": "Agropecuária Mascote",
        "url": "https://www.google.com/maps/place/R.+Florian%C3%B3polis,+1299+-+Guanabara,+Joinville+-+SC,+89207-000/@-26.3294741,-48.8338759,17z/data=!3m1!4b1!4m5!3m4!1s0x94deb11987906e3f:0xf824ad6bd1a900fe!8m2!3d-26.3294741!4d-48.8316818",
        "lat": -26.329464,
        "lon": -48.831682
    },
    {
        "name": "Agropecuária Pedroso",
        "url": "https://www.google.com/maps/place/R.+D%C3%ADlson+Funaro,+667+-+Ulysses+Guimar%C3%A3es,+Joinville+-+SC,+89230-648/@-26.3262833,-48.7984665,17z/data=!3m1!4b1!4m5!3m4!1s0x94deb3e16f8b5db9:0x144cc2d2358b881c!8m2!3d-26.3262833!4d-48.7962724",
        "lat": -26.326274,
        "lon": -48.796262
    },
    {
        "name": "Agropecuária Selva",
        "url": "https://www.google.com/maps/place/Av.+Paulo+Schroeder,+1995+-+Boehmerwald,+Joinville+-+SC,+89232-302/@-26.3517718,-48.833859,17z/data=!3m1!4b1!4m5!3m4!1s0x94deb12d05077109:0x2e8ed634da627583!8m2!3d-26.3517718!4d-48.8316649",
        "lat": -26.351753,
        "lon": -48.831654
    },
    {
        "name": "Agropecuária Tuiuti",
        "url": "https://www.google.com/maps/place/Agropecu%C3%A1ria+Tuiuti/@-26.24839,-48.8237524,17z/data=!3m1!4b1!4m5!3m4!1s0x94deae418611033b:0xad5e6bc8c695be42!8m2!3d-26.24839!4d-48.8215583",
        "lat": -26.248371,
        "lon": -48.821558
    },
    {
        "name": "Agropecuária Vargas",
        "url": "https://www.google.com/maps/place/R.+S%C3%A3o+Firmino,+905+-+Vila+Nova,+Joinville+-+SC,+89237-360/@-26.2920531,-48.9114781,17z/data=!3m1!4b1!4m5!3m4!1s0x94dea53ab87c4f99:0x398313b30034fe32!8m2!3d-26.2920531!4d-48.909284",
        "lat": -26.292015,
        "lon": -48.909284
    },
    {
        "name": "Agropecuária Vital Pet",
        "url": "https://www.google.com/maps/place/Agropecu%C3%A1ria+Vital+Pet/@-26.3257592,-48.7966691,17z/data=!3m1!4b1!4m5!3m4!1s0x94deb3e6acd5a6f5:0x49083974cca38e22!8m2!3d-26.3257592!4d-48.794475",
        "lat": -26.325750,
        "lon": -48.794464
    },
    {
        "name": "Agropet Rodrigues",
        "url": "https://www.google.com/maps/place/Agro+Pet+Rodrigues/@-26.2473275,-48.8128145,17z/data=!3m1!4b1!4m5!3m4!1s0x94deae6d726fa457:0x34b86c444126ca7!8m2!3d-26.2473323!4d-48.8106204",
        "lat": -26.247330,
        "lon": -48.810620
    },
    {
        "name": "Agropet XV",
        "url": "https://www.google.com/maps/place/Agropet+XV/@-26.2957241,-48.87056,17z/data=!3m1!4b1!4m5!3m4!1s0x94deb01b27c7d517:0x9a5c878d8e338ece!8m2!3d-26.2957289!4d-48.8683659",
        "lat": -26.295705,
        "lon": -48.868350
    },
    {
        "name": "Pet Shop Bichinho Sapeca",
        "url": "https://www.google.com/maps/place/R.+dos+Su%C3%AD%C3%A7os,+1998+-+Vila+Nova,+Joinville+-+SC,+89237-613/@-26.2776528,-48.911416,17z/data=!3m1!4b1!4m5!3m4!1s0x94dea510a27c7fdb:0x314fee13f560bd6f!8m2!3d-26.2776528!4d-48.9092219",
        "lat": -26.277643,
        "lon": -48.909211
    },
    {
        "name": "Bicho Rei Pet Shop",
        "url": "https://www.google.com/maps/place/Bicho+Rei+Pet+Shop/@-26.3017889,-48.8270616,17z/data=!3m1!4b1!4m5!3m4!1s0x94deb1bb5c2093f7:0xc335d3690dbe28a!8m2!3d-26.3017889!4d-48.8248675",
        "lat": -26.301779,
        "lon": -48.824857
    },
    {
        "name": "Cãotinho Pet Shop",
        "url": "https://www.google.com/maps/place/C%C3%A3otinho+Pet+Shop/@-26.2849582,-48.8735442,17z/data=!3m1!4b1!4m5!3m4!1s0x94deaffc9fcea90b:0x887d2be455a75a32!8m2!3d-26.284963!4d-48.8713501",
        "lat": -26.284949,
        "lon": -48.871350
    },
    {
        "name": "Casa do Pet Banho e Tosa",
        "url": "https://www.google.com/maps/place/Casa+do+Pet+Banho+e+Tosa/@-26.2754533,-48.8509116,17z/data=!3m1!4b1!4m5!3m4!1s0x94deafd095018241:0xcd87515459e4d90f!8m2!3d-26.2754533!4d-48.8487175",
        "lat": -26.275424,
        "lon": -48.848718
    },
    {
        "name": "Agropecuária e Pet Shop Jardim Pet",
        "url": "https://www.google.com/maps/place/Agropecu%C3%A1ria+e+Pet+Shop+Jardim+Pet/@-26.3154088,-48.845046,15.25z/data=!4m12!1m6!3m5!1s0x94deb1aa89c462db:0x56c3cbfcc45001ee!2sAgropecu%C3%A1ria+e+Pet+Shop+Jardim+Pet!8m2!3d-26.315713!4d-48.83685!3m4!1s0x0:0x56c3cbfcc45001ee!8m2!3d-26.3157092!4d-48.8368464",
        "lat": -26.315688,
        "lon": -48.836849
    },
    {
        "name": "JBA Agropet",
        "url": "https://www.google.com/maps/place/JBA+Agropet/@-26.274424,-48.8311601,17z/data=!3m1!4b1!4m5!3m4!1s0x94deae27e5992e5f:0x4cc62a1a896472d9!8m2!3d-26.274424!4d-48.828966",
        "lat": -26.274424,
        "lon": -48.828966
    },
    {
        "name": "Clínica Veterinária Peludos & Cia",
        "url": "https://www.google.com/maps/place/Cl%C3%ADnica+Veterin%C3%A1ria+Peludos+%26+Cia/@-26.3071113,-48.8307941,17z/data=!3m1!4b1!4m5!3m4!1s0x94deb1a59dc6a60f:0xb21e8a1d76f22a9c!8m2!3d-26.3071113!4d-48.8286",
        "lat": -26.307102,
        "lon": -48.828589
    },
    {
        "name": "Agropet Pet & Cia",
        "url": "https://www.google.com/maps/place/Agropet+Pet+%26+Cia/@-26.3229018,-48.8189515,17z/data=!3m1!4b1!4m5!3m4!1s0x94deb16c5dd1cd81:0x727c54d32433e3b5!8m2!3d-26.3229018!4d-48.8167574",
        "lat": -26.322899,
        "lon": -48.816764
    },
    {
        "name": "Pet Shop Neves",
        "url": "https://www.google.com/maps/place/Pet+Shop+Neves/@-26.2931322,-48.8632191,17z/data=!3m1!4b1!4m5!3m4!1s0x94deb10058f38723:0xd4965841e8b8b95f!8m2!3d-26.293137!4d-48.861025",
        "lat": -26.293132,
        "lon": -48.861025
    },
    {
        "name": "Pet Show",
        "url": "https://www.google.com/maps/place/R.+do+Campo,+70+-+Morro+do+Meio,+Joinville+-+SC,+89215-110/@-26.3364301,-48.8988144,17z/data=!3m1!4b1!4m5!3m4!1s0x94deba8a6c71807f:0x41ae0e30a1d7428d!8m2!3d-26.3364301!4d-48.8966203",
        "lat": -26.336420,
        "lon": -48.896620
    },
    {
        "name": "Ponto Pet - Pet Shop",
        "url": "https://www.google.com/maps/place/Ponto+Pet+-+Pet+Shop/@-26.305674,-48.8573386,17z/data=!3m1!4b1!4m5!3m4!1s0x94deb0413641aa2d:0x30332b09591a4382!8m2!3d-26.305674!4d-48.8551445",
        "lat": -26.305674,
        "lon": -48.855134
    },
    {
        "name": "Pró Gato Pró Cão Clínica Veterinária",
        "url": "https://www.google.com/maps/place/Pr%C3%B3+Gato+Pr%C3%B3+C%C3%A3o+Cl%C3%ADnica+Veterin%C3%A1ria/@-26.2818047,-48.846509,17z/data=!3m1!4b1!4m5!3m4!1s0x94deb1fc13f2496f:0x701b041ee9466114!8m2!3d-26.2818047!4d-48.8443149",
        "lat": -26.281785,
        "lon": -48.844304
    },
    {
        "name": "Super Pet Show",
        "url": "https://www.google.com/maps/place/Super+Pet+Show/@-26.3157411,-48.8456551,17z/data=!3m1!4b1!4m5!3m4!1s0x94deb05447763a53:0x5d2741fd4378b75c!8m2!3d-26.3157459!4d-48.843461",
        "lat": -26.315731,
        "lon": -48.843488
    },
    {
        "name": "Bicho Solto - Animal Care",
        "url": "https://www.google.com/maps/place/Bicho+Solto+-+Animal+Care/@-26.3025301,-48.8590449,17z/data=!3m1!4b1!4m5!3m4!1s0x94deb0691ad65d05:0xb692f125767b0544!8m2!3d-26.3025349!4d-48.8568508",
        "lat": -26.302532,
        "lon": -48.856853
    },
    {
        "name": "Petshop Dudy",
        "url": "https://www.google.com/maps/place/Petshop+Dudy/@-26.2657474,-48.815918,17z/data=!3m1!4b1!4m5!3m4!1s0x94deae1bfefcbfdb:0x5b409d6fd2f26e5a!8m2!3d-26.2657474!4d-48.8137239",
        "lat": -26.265738,
        "lon": -48.813713
    },
    {
        "name": "Agropecuária Catarinense",
        "url": "https://www.google.com/maps/place/Comercial+e+Agropecuaria+Catarinense/@-26.360685,-48.8291851,17z/data=!3m1!4b1!4m12!1m6!3m5!1s0x94deb6cf74e0afb5:0x616eea5406742f1c!2sComercial+e+Agropecuaria+Catarinense!8m2!3d-26.360685!4d-48.826991!3m4!1s0x94deb6cf74e0afb5:0x616eea5406742f1c!8m2!3d-26.360685!4d-48.826991",
        "lat": -26.360656,
        "lon": -48.826980
    },
    {
        "name": "Agroceza",
        "url": "https://www.google.com/maps/place/Agroceza/@-26.2069322,-48.909394,17z/data=!3m1!4b1!4m5!3m4!1s0x94dea669af28d6ab:0x1eb5fc5fce0fc46c!8m2!3d-26.2069322!4d-48.9071999",
        "lat": -26.206894,
        "lon": -48.907200
    },
    {
        "name": "Agropecuária Canários & Cia",
        "url": "https://www.google.com/maps/place/Agropecu%C3%A1ria+Can%C3%A1rios+%26+Cia/@-26.2955407,-48.9020775,17z/data=!3m1!4b1!4m5!3m4!1s0x94dea54a0923455f:0x7cc680ad9bb2081!8m2!3d-26.2955407!4d-48.8998834",
        "lat": -26.295531,
        "lon": -48.899883
    },
    {
        "name": "É do Bicho Pet Store",
        "url": "https://www.google.com/maps/place/%C3%89+do+Bicho+Pet+Store/@-26.9991658,-48.6399259,17z/data=!3m1!4b1!4m5!3m4!1s0x94d8b7635b6cdee1:0x4592579adee0c741!8m2!3d-26.9991658!4d-48.6377318",
        "lat": -26.999147,
        "lon": -48.637721
    },
    {
        "name": "Ponto Pet",
        "url": "https://www.google.com/maps/place/Ponto+Pet/@-26.9879977,-48.6380582,17z/data=!3m1!4b1!4m5!3m4!1s0x94d8b6012dc79f4d:0x7dd3143413b76b0c!8m2!3d-26.9880025!4d-48.6358641",
        "lat": -26.987999,
        "lon": -48.635864
    },
    {
        "name": "Comercial Pereira",
        "url": "https://www.google.com/maps/place/Comercial+Pereira/@-27.0244717,-48.6556599,17z/data=!3m1!4b1!4m5!3m4!1s0x94d8b5cc13c82e27:0xcabd5db19a410041!8m2!3d-27.0244717!4d-48.6534658",
        "lat": -27.024462,
        "lon": -48.653455
    },
    {
        "name": "Dog Shop",
        "url": "https://www.google.com/maps/place/Dog+Shop/@-26.9985134,-48.645761,16.54z/data=!4m8!1m2!2m1!1sdog+shop+!3m4!1s0x94d8b5e4f213cfed:0xe66b27fe217b552c!8m2!3d-26.9978286!4d-48.6450165",
        "lat": -26.997825,
        "lon": -48.645012
    },
    {
        "name": "Fofocão Pet Shop",
        "url": "https://www.google.com/maps/place/FOFOC%C3%83O+Pet+Shop-+Banho+E+Tosa/@-26.243194,-48.6259711,17z/data=!3m1!4b1!4m5!3m4!1s0x94d94e8a1d98703d:0x71cc7bfd6ea2e91c!8m2!3d-26.2431988!4d-48.623777",
        "lat": -26.243199,
        "lon": -48.623776
    },
    {
        "name": "Agro Pet Shop Paraná",
        "url": "https://www.google.com/maps/place/Agro+Pet+Shop+Paran%C3%A1/@-26.2664613,-48.6442164,16.75z/data=!4m5!3m4!1s0x94d94e910f097d4d:0x505bca1995db6417!8m2!3d-26.2664607!4d-48.6416742",
        "lat": -26.266438,
        "lon": -48.641658
    },
    {
        "name": "Agropet Colônia",
        "url": "https://www.google.com/maps/place/Agropet+Col%C3%B4nia/@-25.0921136,-50.1582726,18.5z/data=!4m5!3m4!1s0x94e81a40b13dc705:0x1f8e23f5286ae056!8m2!3d-25.092345!4d-50.1579786",
        "lat": -25.092330,
        "lon": -50.157980
    },
    {
        "name": "Agropecuária Amaral 2",
        "url": "https://www.google.com/maps/place/Agropecu%C3%A1ria+Amaral+2/@-26.6333354,-48.6855031,17z/data=!3m1!4b1!4m5!3m4!1s0x94d92b0b685902ab:0x30dbf37acdd63f5a!8m2!3d-26.6333354!4d-48.683309",
        "lat": -26.633326,
        "lon": -48.683298
    },
    {
        "name": "Agropecuária da Quinta",
        "url": "https://www.google.com/maps/place/Agropecu%C3%A1ria+da+Quinta/@-26.6128797,-48.6837432,17z/data=!3m1!4b1!4m5!3m4!1s0x94d92b81d2a55671:0x97188dd161fa737b!8m2!3d-26.6128797!4d-48.6815491",
        "lat": -26.612860,
        "lon": -48.681538
    },
    {
        "name": "Agropecuária Fransoni",
        "url": "https://www.google.com/maps/place/Agropecu%C3%A1ria+Fransoni/@-26.7036592,-48.6849229,17z/data=!3m1!4b1!4m5!3m4!1s0x94d8d57697b00a43:0x34f38ab6dec72a2b!8m2!3d-26.7036592!4d-48.6827288",
        "lat": -26.703650,
        "lon": -48.682718
    },
    {
        "name": "Litorânea Pet & Pesca Ltda",
        "url": "https://www.google.com/maps/place/Litor%C3%A2nea+Pet+%26+Pesca+Ltda/@-26.7300334,-48.6851735,17z/data=!3m1!4b1!4m5!3m4!1s0x94ceac36bb2abaaf:0x4a8dbd12ce0a39c3!8m2!3d-26.7300334!4d-48.6829794",
        "lat": -26.730024,
        "lon": -48.682969
    },
    {
        "name": "Pet Shop Miau",
        "url": "https://www.google.com/maps/place/Pet+Shop+Miau/@-26.9013842,-48.679905,17z/data=!3m1!4b1!4m5!3m4!1s0x94d8cc5fdff8336d:0x4eb291b19320dde2!8m2!3d-26.901389!4d-48.6777109",
        "lat": -26.901351,
        "lon": -48.677700
    },
    {
        "name": "Agropecuária Girardi",
        "url": "https://www.google.com/maps/place/Agropecu%C3%A1ria+Girardi/@-26.909243,-48.6974027,17z/data=!3m1!4b1!4m5!3m4!1s0x94d8cc9493197a4d:0xc4e843da35754124!8m2!3d-26.909243!4d-48.6952086",
        "lat": -26.909224,
        "lon": -48.695198
    },
    {
        "name": "Adharas Pet Shop e Clínica",
        "url": "https://www.google.com/maps/place/adharas+pet+shop+clinica/@-26.9157395,-48.6555206,17z/data=!4m12!1m6!3m5!1s0x94d8cbf44ed1c593:0x352dec8dc857500a!2sadharas+pet+shop+clinica!8m2!3d-26.9157403!4d-48.6555203!3m4!1s0x94d8cbf44ed1c593:0x352dec8dc857500a!8m2!3d-26.9157403!4d-48.6555203",
        "lat": -26.915720,
        "lon": -48.655515
    },
    {
        "name": "Foster Pet Place",
        "url": "https://www.google.com/maps/place/Foster+Pet+Place/@-26.9206643,-49.0721323,17z/data=!3m1!4b1!4m5!3m4!1s0x94df18c31d5489cd:0x97942b786aae6b6c!8m2!3d-26.9206643!4d-49.0699382",
        "lat": -26.920626,
        "lon": -49.069927
    },
    {
        "name": "Encanto Animal Pet Shop",
        "url": "https://www.google.com/maps/place/Encanto+Animal+Pet+Shop/@-26.9166082,-49.0663498,17z/data=!3m1!4b1!4m5!3m4!1s0x94df18c0d70865a5:0x1ecfede43c1cf458!8m2!3d-26.9166082!4d-49.0641557",
        "lat": -26.916599,
        "lon": -49.064145
    },
    {
        "name": "Pet Glam Premium Pet Shop",
        "url": "https://www.google.com/maps/place/Pet+Glam+Premium+Pet+Shop/@-26.9111953,-49.0945838,17z/data=!3m1!4b1!4m5!3m4!1s0x94df1f3f2e2bbd19:0xf3f932a98b7818f3!8m2!3d-26.9111953!4d-49.0923897",
        "lat": -26.911176,
        "lon": -49.092379
    },
    {
        "name": "Agropet Barão",
        "url": "https://www.google.com/maps/place/Agropecu%C3%A1ria+Tradi%C3%A7%C3%A3o+Matriz/@-27.2199108,-49.6507136,17z/data=!3m1!4b1!4m5!3m4!1s0x94dfb9aae50328ab:0x9be54c68486caa73!8m2!3d-27.2199108!4d-49.6485195",
        "lat": -27.219892,
        "lon": -49.648520
    },
    {
        "name": "Pet Shop Boutikão",
        "url": "https://www.google.com/maps/place/Pet+Shop+Boutikao/@-27.2129692,-49.6380791,17z/data=!3m1!4b1!4m5!3m4!1s0x94dfb9a699d47fdd:0x1a072345e14d78f1!8m2!3d-27.2129692!4d-49.635885",
        "lat": -27.212941,
        "lon": -49.635874
    },
]